{
  "version": "1.0",
  "tiles": [
    "lat193_lon729",
    "lat191_lon728",
    "lat191_lon730",
    "lat189_lon728",
    "lat192_lon728",
    "lat190_lon728",
    "lat192_lon729",
    "lat191_lon729",
    "lat190_lon729",
    "lat192_lon731",
    "lat192_lon730",
    "lat190_lon731",
    "lat193_lon730",
    "lat190_lon730",
    "lat193_lon731",
    "lat189_lon729",
    "lat193_lon728",
    "lat189_lon730",
    "lat191_lon731",
    "lat285_lon771",
    "lat286_lon773",
    "lat284_lon770",
    "lat285_lon770",
    "lat284_lon771",
    "lat289_lon771",
    "lat286_lon771",
    "lat288_lon770",
    "lat286_lon772",
    "lat285_lon773",
    "lat286_lon770",
    "lat287_lon771",
    "lat287_lon772",
    "lat285_lon772",
    "lat284_lon773",
    "lat286_lon769",
    "lat289_lon773",
    "lat284_lon772",
    "lat287_lon773",
    "lat287_lon769",
    "lat287_lon770",
    "lat289_lon769",
    "lat284_lon768",
    "lat288_lon771",
    "lat288_lon768",
    "lat288_lon769",
    "lat288_lon773",
    "lat288_lon772",
    "lat285_lon769",
    "lat129_lon777",
    "lat128_lon777",
    "lat130_lon776",
    "lat129_lon776",
    "lat130_lon775",
    "lat130_lon777",
    "lat129_lon775",
    "lat131_lon775",
    "lat131_lon776",
    "lat131_lon774",
    "lat128_lon776",
    "lat128_lon775",
    "lat129_lon774",
    "lat128_lon774",
    "lat131_lon777",
    "lat130_lon774",
    "lat174_lon785",
    "lat174_lon784",
    "lat175_lon785",
    "lat175_lon784",
    "lat174_lon786",
    "lat173_lon786",
    "lat173_lon785",
    "lat175_lon783",
    "lat173_lon784",
    "lat175_lon786",
    "lat174_lon783",
    "lat176_lon784",
    "lat173_lon783",
    "lat230_lon725",
    "lat231_lon726",
    "lat230_lon726",
    "lat231_lon725",
    "lat230_lon727",
    "lat231_lon727",
    "lat229_lon726",
    "lat130_lon802",
    "lat131_lon803",
    "lat131_lon802",
    "lat130_lon803",
    "lat130_lon801",
    "lat131_lon801",
    "lat129_lon801",
    "lat132_lon802",
    "lat129_lon802",
    "lat132_lon803",
    "lat225_lon884",
    "lat225_lon883",
    "lat226_lon884",
    "lat224_lon884",
    "lat226_lon885",
    "lat227_lon884",
    "lat226_lon883",
    "lat227_lon883",
    "lat227_lon885",
    "lat224_lon883",
    "lat226_lon882",
    "lat227_lon882",
    "lat225_lon885",
    "lat225_lon882",
    "lat212_lon728",
    "lat211_lon728",
    "lat212_lon729",
    "lat211_lon729",
    "lat212_lon727",
    "lat213_lon728",
    "lat213_lon729",
    "lat211_lon727",
    "lat185_lon739",
    "lat186_lon738",
    "lat185_lon738",
    "lat184_lon738",
    "lat186_lon737",
    "lat186_lon739",
    "lat185_lon740",
    "lat184_lon739",
    "lat184_lon740",
    "lat185_lon737",
    "lat186_lon740",
    "lat270_lon758",
    "lat269_lon758",
    "lat268_lon758",
    "lat269_lon759",
    "lat269_lon757",
    "lat270_lon757",
    "lat268_lon759",
    "lat270_lon759",
    "lat268_lon757",
    "lat268_lon809",
    "lat269_lon810",
    "lat269_lon811",
    "lat269_lon809",
    "lat268_lon810",
    "lat267_lon809",
    "lat267_lon810",
    "lat268_lon808",
    "lat265_lon803",
    "lat264_lon803",
    "lat266_lon802",
    "lat265_lon802",
    "lat265_lon804",
    "lat264_lon804",
    "lat211_lon791",
    "lat212_lon791",
    "lat211_lon790",
    "lat212_lon790",
    "lat228_lon759",
    "lat227_lon759",
    "lat227_lon758",
    "lat228_lon758",
    "lat226_lon758",
    "lat226_lon759",
    "lat232_lon774",
    "lat232_lon775",
    "lat233_lon774",
    "lat233_lon775",
    "lat233_lon773",
    "lat177_lon833",
    "lat177_lon832",
    "lat178_lon833",
    "lat178_lon832",
    "lat178_lon834",
    "lat187_lon738",
    "lat187_lon739",
    "lat187_lon737",
    "lat256_lon851",
    "lat256_lon852",
    "lat223_lon732",
    "lat224_lon732",
    "lat223_lon731",
    "lat224_lon731",
    "lat222_lon732",
    "lat223_lon733",
    "lat286_lon774",
    "lat287_lon774",
    "lat287_lon775",
    "lat286_lon775"
  ],
  "services": [
    {
      "id": "342119964",
      "tile_id": "lat193_lon729",
      "type": "hospital",
      "name": "Saint Anne's Hospital",
      "lat": 19.2733799,
      "lon": 72.883476,
      "phone": null
    },
    {
      "id": "346643796",
      "tile_id": "lat191_lon728",
      "type": "hospital",
      "name": "National Centre for Training and Research into Cerebral Palsy",
      "lat": 19.0516428,
      "lon": 72.8321317,
      "phone": null
    },
    {
      "id": "347152618",
      "tile_id": "lat191_lon728",
      "type": "police",
      "name": "Khar Police Station",
      "lat": 19.064037,
      "lon": 72.8371137,
      "phone": null
    },
    {
      "id": "457068089",
      "tile_id": "lat191_lon730",
      "type": "hospital",
      "name": "Jasmine Hospital And Wow Clinic",
      "lat": 19.1486707,
      "lon": 72.9998192,
      "phone": null
    },
    {
      "id": "605221901",
      "tile_id": "lat189_lon728",
      "type": "police",
      "name": "Lokmanya Tilak Road Police Station",
      "lat": 18.9453708,
      "lon": 72.8303315,
      "phone": null
    },
    {
      "id": "702054649",
      "tile_id": "lat192_lon728",
      "type": "hospital",
      "name": "Borivali West",
      "lat": 19.2298129,
      "lon": 72.8471376,
      "phone": null
    },
    {
      "id": "858544370",
      "tile_id": "lat190_lon728",
      "type": "police",
      "name": "Null Bazaar Police Chowkie",
      "lat": 18.9570075,
      "lon": 72.8290329,
      "phone": null
    },
    {
      "id": "858544419",
      "tile_id": "lat190_lon728",
      "type": "police",
      "name": "Pydhoni Police Station",
      "lat": 18.9541719,
      "lon": 72.832021,
      "phone": null
    },
    {
      "id": "860315256",
      "tile_id": "lat190_lon728",
      "type": "hospital",
      "name": "Saifee Ambulance",
      "lat": 18.9599377,
      "lon": 72.8314957,
      "phone": null
    },
    {
      "id": "860348747",
      "tile_id": "lat190_lon728",
      "type": "police",
      "name": "Dongri Police Station",
      "lat": 18.9621396,
      "lon": 72.8390488,
      "phone": null
    },
    {
      "id": "861239805",
      "tile_id": "lat190_lon728",
      "type": "police",
      "name": "Sir JJ Marg Police Station",
      "lat": 18.963006,
      "lon": 72.832291,
      "phone": null
    },
    {
      "id": "985121037",
      "tile_id": "lat192_lon729",
      "type": "police",
      "name": "Aarey Police Station",
      "lat": 19.1664849,
      "lon": 72.8543819,
      "phone": null
    },
    {
      "id": "985121043",
      "tile_id": "lat192_lon729",
      "type": "police",
      "name": "Goregaon (E) Police Station",
      "lat": 19.1558742,
      "lon": 72.8576756,
      "phone": null
    },
    {
      "id": "1034965532",
      "tile_id": "lat189_lon728",
      "type": "police",
      "name": "Lokmanya Tilak Police Chowkie Beat No 4",
      "lat": 18.9474438,
      "lon": 72.833389,
      "phone": null
    },
    {
      "id": "1034965537",
      "tile_id": "lat189_lon728",
      "type": "police",
      "name": "Lokmanya Tilak Police Station",
      "lat": 18.9463293,
      "lon": 72.8331294,
      "phone": null
    },
    {
      "id": "1174929416",
      "tile_id": "lat192_lon728",
      "type": "hospital",
      "name": "Siddarth Municipal Hospital",
      "lat": 19.1597156,
      "lon": 72.8399209,
      "phone": null
    },
    {
      "id": "1241711502",
      "tile_id": "lat189_lon728",
      "type": "police",
      "name": "Emergency Facility",
      "lat": 18.9444479,
      "lon": 72.8328893,
      "phone": null
    },
    {
      "id": "1301593213",
      "tile_id": "lat190_lon728",
      "type": "police",
      "name": "Emergency Facility",
      "lat": 18.9675282,
      "lon": 72.8323654,
      "phone": null
    },
    {
      "id": "1332582403",
      "tile_id": "lat189_lon728",
      "type": "police",
      "name": "Emergency Facility",
      "lat": 18.9302617,
      "lon": 72.8243459,
      "phone": null
    },
    {
      "id": "1347550460",
      "tile_id": "lat191_lon728",
      "type": "hospital",
      "name": "Jevan Vikas Hospital",
      "lat": 19.1106501,
      "lon": 72.8483274,
      "phone": null
    },
    {
      "id": "1356234984",
      "tile_id": "lat191_lon730",
      "type": "hospital",
      "name": "Dr Kasbekar Sterling Hospital",
      "lat": 19.0698454,
      "lon": 72.9873953,
      "phone": "02266804444"
    },
    {
      "id": "1398715651",
      "tile_id": "lat191_lon729",
      "type": "hospital",
      "name": "JOY Hospital",
      "lat": 19.0558773,
      "lon": 72.8973945,
      "phone": null
    },
    {
      "id": "1398717565",
      "tile_id": "lat190_lon729",
      "type": "hospital",
      "name": "Inlaks Hospital",
      "lat": 19.0466131,
      "lon": 72.8964218,
      "phone": null
    },
    {
      "id": "1496182480",
      "tile_id": "lat192_lon729",
      "type": "hospital",
      "name": "Ankit Fracture, Maternity and Surgical Hospital",
      "lat": 19.2270454,
      "lon": 72.8605924,
      "phone": null
    },
    {
      "id": "1640244309",
      "tile_id": "lat191_lon728",
      "type": "hospital",
      "name": "Dr Maitreyee Parulekar",
      "lat": 19.0962884,
      "lon": 72.8483799,
      "phone": null
    },
    {
      "id": "1697431324",
      "tile_id": "lat191_lon728",
      "type": "police",
      "name": "D.N. Nagar Police Station",
      "lat": 19.1225849,
      "lon": 72.8299999,
      "phone": null
    },
    {
      "id": "1712291998",
      "tile_id": "lat192_lon731",
      "type": "hospital",
      "name": "Padmashree Hospital",
      "lat": 19.2122524,
      "lon": 73.0918952,
      "phone": null
    },
    {
      "id": "1787854399",
      "tile_id": "lat191_lon728",
      "type": "hospital",
      "name": "Sujay Hospital",
      "lat": 19.116234,
      "lon": 72.8339632,
      "phone": null
    },
    {
      "id": "1855265659",
      "tile_id": "lat192_lon730",
      "type": "hospital",
      "name": "Bethany Hospital",
      "lat": 19.2198203,
      "lon": 72.9618661,
      "phone": null
    },
    {
      "id": "1855812192",
      "tile_id": "lat191_lon729",
      "type": "hospital",
      "name": "Powai Dental Clinic",
      "lat": 19.1246531,
      "lon": 72.9172844,
      "phone": null
    },
    {
      "id": "1855812194",
      "tile_id": "lat191_lon729",
      "type": "hospital",
      "name": "Powai Hospital",
      "lat": 19.124088,
      "lon": 72.9164511,
      "phone": null
    },
    {
      "id": "1905389024",
      "tile_id": "lat191_lon728",
      "type": "police",
      "name": "Versova Police Station",
      "lat": 19.1241245,
      "lon": 72.8303704,
      "phone": null
    },
    {
      "id": "1939199158",
      "tile_id": "lat192_lon728",
      "type": "hospital",
      "name": "Sailee Hospital and Diagnostic Center",
      "lat": 19.2277332,
      "lon": 72.8406807,
      "phone": null
    },
    {
      "id": "1960732105",
      "tile_id": "lat192_lon730",
      "type": "police",
      "name": "Police Commissioner Office",
      "lat": 19.1960801,
      "lon": 72.9811271,
      "phone": null
    },
    {
      "id": "1960732177",
      "tile_id": "lat192_lon730",
      "type": "police",
      "name": "Vartak Nagar Police Station",
      "lat": 19.2131355,
      "lon": 72.9627611,
      "phone": null
    },
    {
      "id": "1990647113",
      "tile_id": "lat191_lon730",
      "type": "police",
      "name": "KK POLICE STATION",
      "lat": 19.0990752,
      "lon": 73.0051825,
      "phone": null
    },
    {
      "id": "2097757612",
      "tile_id": "lat192_lon729",
      "type": "hospital",
      "name": "Emergency Facility",
      "lat": 19.2150169,
      "lon": 72.871778,
      "phone": null
    },
    {
      "id": "2097757614",
      "tile_id": "lat192_lon729",
      "type": "police",
      "name": "Emergency Facility",
      "lat": 19.2282071,
      "lon": 72.8582168,
      "phone": null
    },
    {
      "id": "2134856430",
      "tile_id": "lat190_lon729",
      "type": "hospital",
      "name": "Emergency Facility",
      "lat": 19.0493781,
      "lon": 72.8698066,
      "phone": null
    },
    {
      "id": "2171447204",
      "tile_id": "lat191_lon728",
      "type": "police",
      "name": "Police Chowki",
      "lat": 19.0628319,
      "lon": 72.8292193,
      "phone": null
    },
    {
      "id": "2186668978",
      "tile_id": "lat191_lon728",
      "type": "hospital",
      "name": "Dr Manveen Gill",
      "lat": 19.132483,
      "lon": 72.8274922,
      "phone": null
    },
    {
      "id": "2206289223",
      "tile_id": "lat192_lon731",
      "type": "police",
      "name": "Vishnunagar Police Station",
      "lat": 19.2192494,
      "lon": 73.0867512,
      "phone": null
    },
    {
      "id": "2238635335",
      "tile_id": "lat191_lon729",
      "type": "hospital",
      "name": "Ameeta Patil Nursing Home",
      "lat": 19.0622247,
      "lon": 72.8997288,
      "phone": null
    },
    {
      "id": "2298079810",
      "tile_id": "lat192_lon729",
      "type": "police",
      "name": "Police Station, Thakur Village",
      "lat": 19.2059514,
      "lon": 72.8729038,
      "phone": null
    },
    {
      "id": "2308138695",
      "tile_id": "lat192_lon729",
      "type": "police",
      "name": "Dindoshi Police station",
      "lat": 19.1789489,
      "lon": 72.8577333,
      "phone": null
    },
    {
      "id": "2319217775",
      "tile_id": "lat191_lon729",
      "type": "hospital",
      "name": "Mata Ramabai B Ambedkar Hospital",
      "lat": 19.0557141,
      "lon": 72.8946408,
      "phone": null
    },
    {
      "id": "2411660992",
      "tile_id": "lat192_lon729",
      "type": "hospital",
      "name": "Hyat Hosptal",
      "lat": 19.1806805,
      "lon": 72.8630713,
      "phone": null
    },
    {
      "id": "2449734722",
      "tile_id": "lat190_lon728",
      "type": "police",
      "name": "Badhamkar Mark Police Station",
      "lat": 18.9608206,
      "lon": 72.8170666,
      "phone": null
    },
    {
      "id": "2562631232",
      "tile_id": "lat192_lon729",
      "type": "police",
      "name": "Gokuldham Police Station",
      "lat": 19.1755909,
      "lon": 72.8676526,
      "phone": null
    },
    {
      "id": "2680678193",
      "tile_id": "lat191_lon728",
      "type": "police",
      "name": "Police Chowk",
      "lat": 19.0738897,
      "lon": 72.8294847,
      "phone": null
    },
    {
      "id": "2913810856",
      "tile_id": "lat191_lon730",
      "type": "hospital",
      "name": "Sai Snehdeep Hospital KK",
      "lat": 19.1085023,
      "lon": 73.0017953,
      "phone": null
    },
    {
      "id": "2920710941",
      "tile_id": "lat192_lon728",
      "type": "hospital",
      "name": "Mangal Murti Hospital and Polyclinic",
      "lat": 19.2263008,
      "lon": 72.8278848,
      "phone": null
    },
    {
      "id": "2930722306",
      "tile_id": "lat191_lon729",
      "type": "hospital",
      "name": "Dr.zamil",
      "lat": 19.0615785,
      "lon": 72.9282129,
      "phone": null
    },
    {
      "id": "2930732807",
      "tile_id": "lat191_lon729",
      "type": "police",
      "name": "Tilak Nagar Police Station",
      "lat": 19.0652856,
      "lon": 72.8959976,
      "phone": null
    },
    {
      "id": "2933183452",
      "tile_id": "lat191_lon729",
      "type": "police",
      "name": "VB Nagar Police Station",
      "lat": 19.0717172,
      "lon": 72.8842275,
      "phone": null
    },
    {
      "id": "2947820875",
      "tile_id": "lat191_lon728",
      "type": "hospital",
      "name": "Emergency Facility",
      "lat": 19.0616337,
      "lon": 72.8451297,
      "phone": null
    },
    {
      "id": "3008501715",
      "tile_id": "lat189_lon728",
      "type": "police",
      "name": "Police Commissioner's Office",
      "lat": 18.9462953,
      "lon": 72.833307,
      "phone": null
    },
    {
      "id": "3186544582",
      "tile_id": "lat192_lon729",
      "type": "police",
      "name": "Emergency Facility",
      "lat": 19.2294953,
      "lon": 72.8559481,
      "phone": null
    },
    {
      "id": "3204171992",
      "tile_id": "lat191_lon729",
      "type": "police",
      "name": "POLICE STATION",
      "lat": 19.0537,
      "lon": 72.9357,
      "phone": null
    },
    {
      "id": "3204211842",
      "tile_id": "lat191_lon729",
      "type": "hospital",
      "name": "jonsons diagnostics",
      "lat": 19.0501477,
      "lon": 72.9193344,
      "phone": null
    },
    {
      "id": "3205777384",
      "tile_id": "lat191_lon729",
      "type": "hospital",
      "name": "nidan hospital",
      "lat": 19.0924663,
      "lon": 72.9121731,
      "phone": null
    },
    {
      "id": "3205813953",
      "tile_id": "lat191_lon729",
      "type": "hospital",
      "name": "bba",
      "lat": 19.0602605,
      "lon": 72.9113338,
      "phone": null
    },
    {
      "id": "3205935610",
      "tile_id": "lat191_lon729",
      "type": "hospital",
      "name": "mahaveer hospital",
      "lat": 19.0677525,
      "lon": 72.9275925,
      "phone": null
    },
    {
      "id": "3205945190",
      "tile_id": "lat190_lon729",
      "type": "police",
      "name": "trombay police station",
      "lat": 19.0361453,
      "lon": 72.9499458,
      "phone": null
    },
    {
      "id": "3205950901",
      "tile_id": "lat192_lon729",
      "type": "police",
      "name": "Tembhipada Police Chowki",
      "lat": 19.1548902,
      "lon": 72.9291114,
      "phone": null
    },
    {
      "id": "3205956099",
      "tile_id": "lat191_lon729",
      "type": "police",
      "name": "chembur police station",
      "lat": 19.0639495,
      "lon": 72.9008254,
      "phone": null
    },
    {
      "id": "3206033563",
      "tile_id": "lat191_lon729",
      "type": "hospital",
      "name": "maa hospital",
      "lat": 19.0585059,
      "lon": 72.8904048,
      "phone": null
    },
    {
      "id": "3213764477",
      "tile_id": "lat191_lon729",
      "type": "hospital",
      "name": "sanjeevan hospital",
      "lat": 19.0608709,
      "lon": 72.9247689,
      "phone": null
    },
    {
      "id": "3213767187",
      "tile_id": "lat191_lon729",
      "type": "hospital",
      "name": "Metalife",
      "lat": 19.0668912,
      "lon": 72.9134181,
      "phone": null
    },
    {
      "id": "3215517363",
      "tile_id": "lat191_lon729",
      "type": "hospital",
      "name": "AMAN",
      "lat": 19.0524549,
      "lon": 72.9185421,
      "phone": null
    },
    {
      "id": "3215545236",
      "tile_id": "lat191_lon729",
      "type": "police",
      "name": "Maharashtra Nagar Police Station",
      "lat": 19.0502474,
      "lon": 72.9378622,
      "phone": null
    },
    {
      "id": "3215577539",
      "tile_id": "lat191_lon729",
      "type": "police",
      "name": "Govandi Police station",
      "lat": 19.0595211,
      "lon": 72.9116651,
      "phone": null
    },
    {
      "id": "3215584200",
      "tile_id": "lat191_lon729",
      "type": "police",
      "name": "Lallubhai Police Station",
      "lat": 19.0528478,
      "lon": 72.9270997,
      "phone": null
    },
    {
      "id": "3215621243",
      "tile_id": "lat191_lon729",
      "type": "police",
      "name": "gaikwaad nagar police station",
      "lat": 19.0603518,
      "lon": 72.9104397,
      "phone": null
    },
    {
      "id": "3224657234",
      "tile_id": "lat192_lon730",
      "type": "hospital",
      "name": "Saidhanhospital Iccu and Eye Care",
      "lat": 19.1682476,
      "lon": 72.9612909,
      "phone": null
    },
    {
      "id": "3224692237",
      "tile_id": "lat192_lon730",
      "type": "hospital",
      "name": "Chandraganga Hospital, Mulund",
      "lat": 19.1760293,
      "lon": 72.9618357,
      "phone": null
    },
    {
      "id": "3263043837",
      "tile_id": "lat192_lon730",
      "type": "police",
      "name": "WAGLE POLICE STATION",
      "lat": 19.2031874,
      "lon": 72.9550994,
      "phone": null
    },
    {
      "id": "3289580677",
      "tile_id": "lat191_lon729",
      "type": "hospital",
      "name": "Kurla Nursing Room",
      "lat": 19.0708167,
      "lon": 72.8806792,
      "phone": null
    },
    {
      "id": "3396640328",
      "tile_id": "lat192_lon730",
      "type": "hospital",
      "name": "The Origin International Fertility Centre",
      "lat": 19.227965,
      "lon": 72.9694447,
      "phone": null
    },
    {
      "id": "3403264488",
      "tile_id": "lat191_lon729",
      "type": "hospital",
      "name": "gr8 smile dental clinic",
      "lat": 19.1068191,
      "lon": 72.8507443,
      "phone": "+91 22 2684 2451"
    },
    {
      "id": "3529547303",
      "tile_id": "lat191_lon729",
      "type": "hospital",
      "name": "new life hospital",
      "lat": 19.0897614,
      "lon": 72.9049996,
      "phone": null
    },
    {
      "id": "3532038985",
      "tile_id": "lat191_lon729",
      "type": "hospital",
      "name": "muktabai hospital",
      "lat": 19.0946018,
      "lon": 72.9032913,
      "phone": null
    },
    {
      "id": "3532119818",
      "tile_id": "lat191_lon729",
      "type": "hospital",
      "name": "v care hospital intensive& unit care",
      "lat": 19.0634778,
      "lon": 72.8817876,
      "phone": null
    },
    {
      "id": "3532121099",
      "tile_id": "lat191_lon729",
      "type": "police",
      "name": "Nehru Nagar Kurla E Police Chowky",
      "lat": 19.0650661,
      "lon": 72.8808749,
      "phone": null
    },
    {
      "id": "3532124714",
      "tile_id": "lat191_lon729",
      "type": "hospital",
      "name": "arpan nursing home",
      "lat": 19.0693933,
      "lon": 72.8781202,
      "phone": null
    },
    {
      "id": "3532124717",
      "tile_id": "lat191_lon729",
      "type": "hospital",
      "name": "fauziya hospital",
      "lat": 19.0627584,
      "lon": 72.8731765,
      "phone": null
    },
    {
      "id": "3532126359",
      "tile_id": "lat191_lon729",
      "type": "hospital",
      "name": "arayan hospital",
      "lat": 19.0636096,
      "lon": 72.8819271,
      "phone": null
    },
    {
      "id": "3547889593",
      "tile_id": "lat191_lon729",
      "type": "police",
      "name": "Khardev Nagar Police Station",
      "lat": 19.0557429,
      "lon": 72.9088297,
      "phone": null
    },
    {
      "id": "3587131699",
      "tile_id": "lat191_lon729",
      "type": "hospital",
      "name": "Anket Nursing Home",
      "lat": 19.1308944,
      "lon": 72.9299048,
      "phone": null
    },
    {
      "id": "3602876220",
      "tile_id": "lat191_lon729",
      "type": "police",
      "name": "Vikhroli Police Station",
      "lat": 19.1187189,
      "lon": 72.9373252,
      "phone": null
    },
    {
      "id": "3761192666",
      "tile_id": "lat190_lon731",
      "type": "hospital",
      "name": "Medicity Hospital",
      "lat": 19.0347843,
      "lon": 73.0685485,
      "phone": null
    },
    {
      "id": "3767106111",
      "tile_id": "lat191_lon728",
      "type": "hospital",
      "name": "Bellevue Multispeciality Hospital",
      "lat": 19.1289988,
      "lon": 72.8316764,
      "phone": null
    },
    {
      "id": "3951526714",
      "tile_id": "lat191_lon728",
      "type": "hospital",
      "name": "Nanavati Hospital, Mumbai",
      "lat": 19.0959684,
      "lon": 72.8400115,
      "phone": "2226267500"
    },
    {
      "id": "3951538079",
      "tile_id": "lat191_lon728",
      "type": "hospital",
      "name": "Surya Mother And Child Speciality Hospital",
      "lat": 19.0857296,
      "lon": 72.8377345,
      "phone": null
    },
    {
      "id": "3951538080",
      "tile_id": "lat191_lon728",
      "type": "hospital",
      "name": "Surya Childrens Hospital",
      "lat": 19.0855132,
      "lon": 72.837945,
      "phone": null
    },
    {
      "id": "3958000626",
      "tile_id": "lat190_lon729",
      "type": "hospital",
      "name": "Aryan Hospital",
      "lat": 19.0391617,
      "lon": 72.9488101,
      "phone": null
    },
    {
      "id": "3979081599",
      "tile_id": "lat191_lon728",
      "type": "hospital",
      "name": "Nutan Mammography and Sonography Centre",
      "lat": 19.1140839,
      "lon": 72.8417197,
      "phone": null
    },
    {
      "id": "4113597101",
      "tile_id": "lat192_lon729",
      "type": "hospital",
      "name": "Dr.Mukhi's Raj Hospital",
      "lat": 19.1760945,
      "lon": 72.9490036,
      "phone": "022 25658843"
    },
    {
      "id": "4119416996",
      "tile_id": "lat192_lon730",
      "type": "hospital",
      "name": "Ashwini Hospital and I. C. C. U. with Dialysis Centre",
      "lat": 19.1753107,
      "lon": 72.9514943,
      "phone": null
    },
    {
      "id": "4158102989",
      "tile_id": "lat192_lon730",
      "type": "hospital",
      "name": "Chiranjeevi Hospital",
      "lat": 19.1979406,
      "lon": 72.9681922,
      "phone": null
    },
    {
      "id": "4209578999",
      "tile_id": "lat190_lon728",
      "type": "hospital",
      "name": "Bhatia",
      "lat": 18.9656765,
      "lon": 72.8135089,
      "phone": null
    },
    {
      "id": "4216317814",
      "tile_id": "lat193_lon730",
      "type": "hospital",
      "name": "Currae Hospital",
      "lat": 19.25583,
      "lon": 72.971723,
      "phone": null
    },
    {
      "id": "4216741290",
      "tile_id": "lat191_lon729",
      "type": "hospital",
      "name": "Mukund Hospital",
      "lat": 19.111503,
      "lon": 72.8723931,
      "phone": null
    },
    {
      "id": "4326473789",
      "tile_id": "lat191_lon729",
      "type": "hospital",
      "name": "Tiwari Hospital",
      "lat": 19.09722,
      "lon": 72.888041,
      "phone": null
    },
    {
      "id": "4352387478",
      "tile_id": "lat191_lon728",
      "type": "hospital",
      "name": "Ramakrishna Mission Hospital, Mumbai",
      "lat": 19.0750197,
      "lon": 72.8356392,
      "phone": null
    },
    {
      "id": "4375287768",
      "tile_id": "lat193_lon730",
      "type": "hospital",
      "name": "Dhanwantri Hospital",
      "lat": 19.2734457,
      "lon": 72.9621847,
      "phone": null
    },
    {
      "id": "4402150675",
      "tile_id": "lat191_lon729",
      "type": "police",
      "name": "Chheda Nagar Police Station",
      "lat": 19.0672141,
      "lon": 72.9031566,
      "phone": "+912225259663"
    },
    {
      "id": "4423695890",
      "tile_id": "lat190_lon729",
      "type": "hospital",
      "name": "Smt S.R.Mehta and Sir K.P.Cardiac Institute",
      "lat": 19.0323408,
      "lon": 72.8595512,
      "phone": "2224035459"
    },
    {
      "id": "4424542678",
      "tile_id": "lat190_lon731",
      "type": "police",
      "name": "chaitra cafe",
      "lat": 19.03502,
      "lon": 73.1009651,
      "phone": "+9190666227898"
    },
    {
      "id": "4498900764",
      "tile_id": "lat192_lon728",
      "type": "hospital",
      "name": "Government General Hospital, Malwani Malad",
      "lat": 19.2007076,
      "lon": 72.8221715,
      "phone": null
    },
    {
      "id": "4535334564",
      "tile_id": "lat192_lon730",
      "type": "hospital",
      "name": "Aayush Hospital, Thane",
      "lat": 19.1984892,
      "lon": 72.9657017,
      "phone": null
    },
    {
      "id": "4548656491",
      "tile_id": "lat193_lon729",
      "type": "hospital",
      "name": "Balaji Hospital",
      "lat": 19.2953061,
      "lon": 72.859127,
      "phone": null
    },
    {
      "id": "4572621489",
      "tile_id": "lat193_lon729",
      "type": "hospital",
      "name": "Deepak Hospital",
      "lat": 19.2928354,
      "lon": 72.8616136,
      "phone": null
    },
    {
      "id": "4585363491",
      "tile_id": "lat192_lon730",
      "type": "hospital",
      "name": "Emergency Facility",
      "lat": 19.2001317,
      "lon": 72.9627237,
      "phone": null
    },
    {
      "id": "4585363492",
      "tile_id": "lat192_lon730",
      "type": "hospital",
      "name": "Upasani Maternity and Surgical Nursing Home",
      "lat": 19.1732429,
      "lon": 72.9547642,
      "phone": null
    },
    {
      "id": "4585381996",
      "tile_id": "lat192_lon730",
      "type": "hospital",
      "name": "Highway Hospital",
      "lat": 19.1894902,
      "lon": 72.9630092,
      "phone": null
    },
    {
      "id": "4605844012",
      "tile_id": "lat192_lon730",
      "type": "hospital",
      "name": "Emergency Facility",
      "lat": 19.2070682,
      "lon": 72.9505093,
      "phone": null
    },
    {
      "id": "4605876116",
      "tile_id": "lat192_lon730",
      "type": "hospital",
      "name": "Emergency Facility",
      "lat": 19.206275,
      "lon": 72.9542754,
      "phone": null
    },
    {
      "id": "4605880700",
      "tile_id": "lat192_lon730",
      "type": "hospital",
      "name": "Emergency Facility",
      "lat": 19.2052684,
      "lon": 72.9539766,
      "phone": null
    },
    {
      "id": "4605881297",
      "tile_id": "lat192_lon730",
      "type": "hospital",
      "name": "Emergency Facility",
      "lat": 19.2076472,
      "lon": 72.9545828,
      "phone": null
    },
    {
      "id": "4605904089",
      "tile_id": "lat192_lon730",
      "type": "hospital",
      "name": "Emergency Facility",
      "lat": 19.2058429,
      "lon": 72.9527481,
      "phone": null
    },
    {
      "id": "4610458627",
      "tile_id": "lat190_lon730",
      "type": "hospital",
      "name": "Army Medical Facility",
      "lat": 19.0260761,
      "lon": 73.029474,
      "phone": null
    },
    {
      "id": "4621598794",
      "tile_id": "lat193_lon729",
      "type": "police",
      "name": "Emergency Facility",
      "lat": 19.2573838,
      "lon": 72.8650937,
      "phone": null
    },
    {
      "id": "4658680890",
      "tile_id": "lat192_lon730",
      "type": "police",
      "name": "Emergency Facility",
      "lat": 19.1695498,
      "lon": 72.9591762,
      "phone": null
    },
    {
      "id": "4658913990",
      "tile_id": "lat192_lon730",
      "type": "hospital",
      "name": "Meher Ambe Nursing Home",
      "lat": 19.1753796,
      "lon": 72.9569965,
      "phone": null
    },
    {
      "id": "4658954489",
      "tile_id": "lat192_lon730",
      "type": "hospital",
      "name": "Emergency Facility",
      "lat": 19.172178,
      "lon": 72.9509527,
      "phone": null
    },
    {
      "id": "4672225593",
      "tile_id": "lat190_lon728",
      "type": "hospital",
      "name": "Pikale Hospital",
      "lat": 19.0401523,
      "lon": 72.844575,
      "phone": null
    },
    {
      "id": "4746710022",
      "tile_id": "lat192_lon730",
      "type": "hospital",
      "name": "Emergency Facility",
      "lat": 19.1733919,
      "lon": 72.9538799,
      "phone": null
    },
    {
      "id": "4773378329",
      "tile_id": "lat190_lon731",
      "type": "hospital",
      "name": "om sai",
      "lat": 19.0205127,
      "lon": 73.0894908,
      "phone": null
    },
    {
      "id": "4791178925",
      "tile_id": "lat192_lon730",
      "type": "police",
      "name": "Emergency Facility",
      "lat": 19.1715844,
      "lon": 72.956655,
      "phone": null
    },
    {
      "id": "4809630421",
      "tile_id": "lat192_lon729",
      "type": "hospital",
      "name": "Emergency Facility",
      "lat": 19.1729063,
      "lon": 72.9496899,
      "phone": null
    },
    {
      "id": "4848773727",
      "tile_id": "lat190_lon729",
      "type": "hospital",
      "name": "Mata Lachmi Hospital",
      "lat": 19.0358379,
      "lon": 72.8609822,
      "phone": null
    },
    {
      "id": "4848773734",
      "tile_id": "lat190_lon729",
      "type": "police",
      "name": "Sion (E) Police Station",
      "lat": 19.0313226,
      "lon": 72.8575876,
      "phone": null
    },
    {
      "id": "4930562921",
      "tile_id": "lat192_lon730",
      "type": "hospital",
      "name": "Emergency Facility",
      "lat": 19.1689031,
      "lon": 72.9601586,
      "phone": null
    },
    {
      "id": "4930562922",
      "tile_id": "lat192_lon730",
      "type": "hospital",
      "name": "Emergency Facility",
      "lat": 19.185962,
      "lon": 72.9674462,
      "phone": null
    },
    {
      "id": "4956342424",
      "tile_id": "lat190_lon730",
      "type": "hospital",
      "name": "Doctor's Clinic",
      "lat": 19.006584,
      "lon": 73.0157937,
      "phone": null
    },
    {
      "id": "4992249823",
      "tile_id": "lat192_lon730",
      "type": "hospital",
      "name": "Saarthi Health Care",
      "lat": 19.1764944,
      "lon": 72.9514785,
      "phone": null
    },
    {
      "id": "4996322798",
      "tile_id": "lat191_lon729",
      "type": "hospital",
      "name": "Kurla Municipal Hospital",
      "lat": 19.0815079,
      "lon": 72.8831157,
      "phone": null
    },
    {
      "id": "4998848423",
      "tile_id": "lat191_lon728",
      "type": "hospital",
      "name": "Bharatiya Arogya Nidhi Sheth Kantilal C. Parikh General Hospital",
      "lat": 19.1117839,
      "lon": 72.8283425,
      "phone": "02226206021"
    },
    {
      "id": "5057817507",
      "tile_id": "lat190_lon729",
      "type": "police",
      "name": "Matunga Police Station",
      "lat": 19.0311163,
      "lon": 72.8578787,
      "phone": null
    },
    {
      "id": "5073191992",
      "tile_id": "lat191_lon730",
      "type": "police",
      "name": "Shil Mhape Police Chouki",
      "lat": 19.1147228,
      "lon": 73.0343208,
      "phone": null
    },
    {
      "id": "5077468322",
      "tile_id": "lat191_lon730",
      "type": "police",
      "name": "Emergency Facility",
      "lat": 19.1428227,
      "lon": 73.046117,
      "phone": null
    },
    {
      "id": "5077468323",
      "tile_id": "lat191_lon730",
      "type": "police",
      "name": "Emergency Facility",
      "lat": 19.1463017,
      "lon": 73.0009279,
      "phone": null
    },
    {
      "id": "5090930970",
      "tile_id": "lat190_lon728",
      "type": "hospital",
      "name": "Peoples Mobile Hospitals",
      "lat": 19.0066529,
      "lon": 72.8179411,
      "phone": null
    },
    {
      "id": "5099872961",
      "tile_id": "lat190_lon728",
      "type": "hospital",
      "name": "Global Hospital Super Speciality and Transplant Center",
      "lat": 18.9994432,
      "lon": 72.8405011,
      "phone": "8024242424"
    },
    {
      "id": "5115140442",
      "tile_id": "lat192_lon728",
      "type": "hospital",
      "name": "Dr. Vora's Premature Critical Care and General Hospital",
      "lat": 19.206618,
      "lon": 72.8419209,
      "phone": null
    },
    {
      "id": "5116459526",
      "tile_id": "lat192_lon729",
      "type": "police",
      "name": "Kandivali Police Station",
      "lat": 19.209583,
      "lon": 72.8501404,
      "phone": null
    },
    {
      "id": "5193467221",
      "tile_id": "lat190_lon728",
      "type": "hospital",
      "name": "Emergency Facility",
      "lat": 18.9534957,
      "lon": 72.8371432,
      "phone": null
    },
    {
      "id": "5201099224",
      "tile_id": "lat191_lon728",
      "type": "hospital",
      "name": "Emergency Facility",
      "lat": 19.1372375,
      "lon": 72.8366102,
      "phone": null
    },
    {
      "id": "5206554121",
      "tile_id": "lat190_lon728",
      "type": "hospital",
      "name": "Emergency Facility",
      "lat": 18.9645402,
      "lon": 72.8054881,
      "phone": null
    },
    {
      "id": "5258276335",
      "tile_id": "lat191_lon728",
      "type": "police",
      "name": "Mount Mary Police Chouki",
      "lat": 19.051928,
      "lon": 72.8232806,
      "phone": null
    },
    {
      "id": "5437365757",
      "tile_id": "lat190_lon731",
      "type": "hospital",
      "name": "Emergency Facility",
      "lat": 18.9912296,
      "lon": 73.115357,
      "phone": "02227490801"
    },
    {
      "id": "5448387024",
      "tile_id": "lat190_lon728",
      "type": "police",
      "name": "Emergency Facility",
      "lat": 18.9978829,
      "lon": 72.837489,
      "phone": null
    },
    {
      "id": "5456874526",
      "tile_id": "lat191_lon729",
      "type": "hospital",
      "name": "Emergency Facility",
      "lat": 19.0938333,
      "lon": 72.898646,
      "phone": null
    },
    {
      "id": "5496408819",
      "tile_id": "lat191_lon729",
      "type": "hospital",
      "name": "Marol",
      "lat": 19.1172198,
      "lon": 72.882342,
      "phone": null
    },
    {
      "id": "5506320530",
      "tile_id": "lat191_lon729",
      "type": "police",
      "name": "BKC Police Station",
      "lat": 19.0645147,
      "lon": 72.8603409,
      "phone": null
    },
    {
      "id": "5506320776",
      "tile_id": "lat191_lon729",
      "type": "hospital",
      "name": "Shivam Nursing Home",
      "lat": 19.0646242,
      "lon": 72.8510225,
      "phone": "022-2657138689"
    },
    {
      "id": "5543790838",
      "tile_id": "lat190_lon731",
      "type": "hospital",
      "name": "Mahatma Gandhi Mission",
      "lat": 19.0178334,
      "lon": 73.1043309,
      "phone": null
    },
    {
      "id": "5614984680",
      "tile_id": "lat191_lon728",
      "type": "police",
      "name": "Versova Police Station",
      "lat": 19.1429738,
      "lon": 72.8044882,
      "phone": null
    },
    {
      "id": "5667043327",
      "tile_id": "lat192_lon729",
      "type": "police",
      "name": "Samatanagar Police Station",
      "lat": 19.1998393,
      "lon": 72.8614152,
      "phone": null
    },
    {
      "id": "5668284373",
      "tile_id": "lat190_lon728",
      "type": "police",
      "name": "NM Joshi Marg Police Station",
      "lat": 18.9914132,
      "lon": 72.8309771,
      "phone": null
    },
    {
      "id": "5859095486",
      "tile_id": "lat192_lon729",
      "type": "hospital",
      "name": "Emergency Facility",
      "lat": 19.1627973,
      "lon": 72.9369083,
      "phone": null
    },
    {
      "id": "6052581621",
      "tile_id": "lat192_lon729",
      "type": "police",
      "name": "Traffic Police Chowky",
      "lat": 19.163976,
      "lon": 72.9374814,
      "phone": null
    },
    {
      "id": "6322310753",
      "tile_id": "lat191_lon729",
      "type": "hospital",
      "name": "Ashirvaad Heart Hospital",
      "lat": 19.0763785,
      "lon": 72.9054696,
      "phone": null
    },
    {
      "id": "6358405085",
      "tile_id": "lat192_lon730",
      "type": "hospital",
      "name": "Dr. Sabnis Maternity and Nursing Home",
      "lat": 19.1737405,
      "lon": 72.9621216,
      "phone": null
    },
    {
      "id": "6411677375",
      "tile_id": "lat192_lon730",
      "type": "hospital",
      "name": "Vagholikar Hospital",
      "lat": 19.1894009,
      "lon": 72.9718231,
      "phone": null
    },
    {
      "id": "6564629280",
      "tile_id": "lat192_lon728",
      "type": "hospital",
      "name": "Dr. Disha's Homoeopathy",
      "lat": 19.2040615,
      "lon": 72.8489685,
      "phone": null
    },
    {
      "id": "6795512985",
      "tile_id": "lat191_lon729",
      "type": "hospital",
      "name": "Emergency Facility",
      "lat": 19.1150444,
      "lon": 72.9073885,
      "phone": "+912233993939"
    },
    {
      "id": "6795570585",
      "tile_id": "lat191_lon729",
      "type": "hospital",
      "name": "Emergency Facility",
      "lat": 19.1154259,
      "lon": 72.9075074,
      "phone": null
    },
    {
      "id": "6801919192",
      "tile_id": "lat191_lon729",
      "type": "hospital",
      "name": "Nihal Nursing Home & Opthalmologist",
      "lat": 19.1253722,
      "lon": 72.9190861,
      "phone": null
    },
    {
      "id": "6991331185",
      "tile_id": "lat190_lon728",
      "type": "hospital",
      "name": "Emergency Facility",
      "lat": 19.0239187,
      "lon": 72.8407113,
      "phone": null
    },
    {
      "id": "7040968857",
      "tile_id": "lat192_lon730",
      "type": "hospital",
      "name": "Daxini Heart Centre",
      "lat": 19.1757098,
      "lon": 72.9527646,
      "phone": null
    },
    {
      "id": "7040981014",
      "tile_id": "lat192_lon730",
      "type": "hospital",
      "name": "Ashirwad Critical Care Unit",
      "lat": 19.1744516,
      "lon": 72.9527345,
      "phone": null
    },
    {
      "id": "7041018413",
      "tile_id": "lat192_lon730",
      "type": "hospital",
      "name": "Prasad Surgical and Children Nursing Home",
      "lat": 19.1762443,
      "lon": 72.9521906,
      "phone": null
    },
    {
      "id": "7041055354",
      "tile_id": "lat192_lon730",
      "type": "hospital",
      "name": "Dr Bhanushali Hospital",
      "lat": 19.1882382,
      "lon": 72.9761146,
      "phone": null
    },
    {
      "id": "7042870633",
      "tile_id": "lat192_lon728",
      "type": "hospital",
      "name": "Sumangal Hospital",
      "lat": 19.2020207,
      "lon": 72.827885,
      "phone": null
    },
    {
      "id": "7042871859",
      "tile_id": "lat191_lon729",
      "type": "hospital",
      "name": "Niramaya General Hospital",
      "lat": 19.0500033,
      "lon": 72.9044715,
      "phone": null
    },
    {
      "id": "7042873521",
      "tile_id": "lat192_lon730",
      "type": "hospital",
      "name": "Gokul Nursing Home and ICCU",
      "lat": 19.1734002,
      "lon": 72.9553535,
      "phone": null
    },
    {
      "id": "7042873531",
      "tile_id": "lat192_lon728",
      "type": "hospital",
      "name": "Kapadia Multi Speciality Hospital",
      "lat": 19.1631084,
      "lon": 72.8434806,
      "phone": null
    },
    {
      "id": "7042873546",
      "tile_id": "lat192_lon728",
      "type": "hospital",
      "name": "Pooja Hospital, Mumbai",
      "lat": 19.155501,
      "lon": 72.845498,
      "phone": null
    },
    {
      "id": "7042942734",
      "tile_id": "lat191_lon729",
      "type": "hospital",
      "name": "Dr.Sanjay Sonar Laparoscopy and Scopy Center",
      "lat": 19.059025,
      "lon": 72.8973126,
      "phone": null
    },
    {
      "id": "7042945057",
      "tile_id": "lat192_lon728",
      "type": "hospital",
      "name": "Dr. Bet Hospital and Polyclinic",
      "lat": 19.1932665,
      "lon": 72.8397135,
      "phone": null
    },
    {
      "id": "7042955283",
      "tile_id": "lat191_lon729",
      "type": "hospital",
      "name": "Shree Chembur Jain Medical Relief Centre",
      "lat": 19.0563744,
      "lon": 72.8957395,
      "phone": null
    },
    {
      "id": "7042963296",
      "tile_id": "lat191_lon729",
      "type": "hospital",
      "name": "Yash Eye Care and Polyclinic",
      "lat": 19.0608391,
      "lon": 72.8985543,
      "phone": null
    },
    {
      "id": "7042981400",
      "tile_id": "lat192_lon730",
      "type": "hospital",
      "name": "Sai Seva Hospital and Icu, Mumbai",
      "lat": 19.1554376,
      "lon": 72.9974642,
      "phone": "2227799529"
    },
    {
      "id": "7042981412",
      "tile_id": "lat192_lon730",
      "type": "hospital",
      "name": "Ria Nursing Home",
      "lat": 19.1790754,
      "lon": 72.9565283,
      "phone": null
    },
    {
      "id": "7042987278",
      "tile_id": "lat192_lon729",
      "type": "hospital",
      "name": "Kk Maternity and General Hospital",
      "lat": 19.2467458,
      "lon": 72.8611122,
      "phone": null
    },
    {
      "id": "7042991461",
      "tile_id": "lat192_lon730",
      "type": "hospital",
      "name": "Amber Eye Care and Microsurgery Centre",
      "lat": 19.1872664,
      "lon": 72.9692407,
      "phone": null
    },
    {
      "id": "7042991469",
      "tile_id": "lat192_lon730",
      "type": "hospital",
      "name": "Dr.Pathak's Hospital",
      "lat": 19.187441,
      "lon": 72.9663971,
      "phone": null
    },
    {
      "id": "7042997510",
      "tile_id": "lat192_lon728",
      "type": "hospital",
      "name": "Manorama Hospital",
      "lat": 19.1905421,
      "lon": 72.8463601,
      "phone": null
    },
    {
      "id": "7042999151",
      "tile_id": "lat191_lon729",
      "type": "hospital",
      "name": "Vatsal Nicu and Childrens Hospital",
      "lat": 19.0824458,
      "lon": 72.9092512,
      "phone": null
    },
    {
      "id": "7043001747",
      "tile_id": "lat191_lon729",
      "type": "hospital",
      "name": "Aditya Health Care Hospital",
      "lat": 19.0579944,
      "lon": 72.9087979,
      "phone": null
    },
    {
      "id": "7043001889",
      "tile_id": "lat192_lon731",
      "type": "hospital",
      "name": "Shree Ashirwad Hospital, Dombivli",
      "lat": 19.2076616,
      "lon": 73.0948607,
      "phone": null
    },
    {
      "id": "7043003793",
      "tile_id": "lat192_lon728",
      "type": "hospital",
      "name": "Le Nest Hospital",
      "lat": 19.1759439,
      "lon": 72.8463833,
      "phone": null
    },
    {
      "id": "7043029973",
      "tile_id": "lat190_lon729",
      "type": "hospital",
      "name": "Nayak Medicare - Chembur",
      "lat": 19.0456831,
      "lon": 72.9025014,
      "phone": null
    },
    {
      "id": "7043035499",
      "tile_id": "lat191_lon729",
      "type": "hospital",
      "name": "Dr. Das Hospital - Chembur (Mumbai)",
      "lat": 19.0596994,
      "lon": 72.8997535,
      "phone": null
    },
    {
      "id": "7043038873",
      "tile_id": "lat192_lon729",
      "type": "hospital",
      "name": "Dr Parikhs Maternity, Gynaec, and General Hospital",
      "lat": 19.2228876,
      "lon": 72.8574027,
      "phone": null
    },
    {
      "id": "7043038874",
      "tile_id": "lat192_lon729",
      "type": "hospital",
      "name": "Dhanshri Hospital",
      "lat": 19.2221415,
      "lon": 72.8550357,
      "phone": null
    },
    {
      "id": "7043038875",
      "tile_id": "lat192_lon729",
      "type": "hospital",
      "name": "Vasudhan Cosmetic Plastic Surgery Centre",
      "lat": 19.2187028,
      "lon": 72.8523723,
      "phone": null
    },
    {
      "id": "7043055857",
      "tile_id": "lat191_lon729",
      "type": "hospital",
      "name": "Laxmi Maternity and Nursing Home, Mumbai",
      "lat": 19.0570862,
      "lon": 72.8988851,
      "phone": null
    },
    {
      "id": "7043060180",
      "tile_id": "lat191_lon729",
      "type": "hospital",
      "name": "Hegde Hospital",
      "lat": 19.0606625,
      "lon": 72.8997141,
      "phone": null
    },
    {
      "id": "7043060181",
      "tile_id": "lat192_lon729",
      "type": "hospital",
      "name": "Sai Siddhi Hospital, Mumbai",
      "lat": 19.1699191,
      "lon": 72.9321205,
      "phone": null
    },
    {
      "id": "7043062926",
      "tile_id": "lat193_lon731",
      "type": "hospital",
      "name": "Guru Krupa Hospital and Polyclinic",
      "lat": 19.2840189,
      "lon": 73.0502421,
      "phone": null
    },
    {
      "id": "7043071382",
      "tile_id": "lat192_lon729",
      "type": "hospital",
      "name": "Devkunj Charitablr Trust Matushri Mankbai Nagji Sa",
      "lat": 19.170637,
      "lon": 72.9498291,
      "phone": null
    },
    {
      "id": "7043077889",
      "tile_id": "lat191_lon729",
      "type": "hospital",
      "name": "Dr Nandita Rane's Eye Clinic",
      "lat": 19.0694366,
      "lon": 72.9038545,
      "phone": null
    },
    {
      "id": "7043090395",
      "tile_id": "lat190_lon729",
      "type": "hospital",
      "name": "Genesis Speciality Center (Health-Check Up",
      "lat": 19.0190313,
      "lon": 72.8639666,
      "phone": null
    },
    {
      "id": "7043106193",
      "tile_id": "lat191_lon729",
      "type": "hospital",
      "name": "Patankar's Hand and Limb Reconstruction Clinic",
      "lat": 19.0610033,
      "lon": 72.8985974,
      "phone": null
    },
    {
      "id": "7043116599",
      "tile_id": "lat192_lon730",
      "type": "hospital",
      "name": "Nav Drishti Netralaya",
      "lat": 19.1739604,
      "lon": 72.9570701,
      "phone": null
    },
    {
      "id": "7043123119",
      "tile_id": "lat192_lon729",
      "type": "hospital",
      "name": "Surya Eye Institute and Research Centre",
      "lat": 19.1686019,
      "lon": 72.9450512,
      "phone": null
    },
    {
      "id": "7043125151",
      "tile_id": "lat191_lon729",
      "type": "hospital",
      "name": "Icon Hospital and Research Centre",
      "lat": 19.0618187,
      "lon": 72.8980838,
      "phone": null
    },
    {
      "id": "7043136190",
      "tile_id": "lat193_lon731",
      "type": "hospital",
      "name": "Apex Multispeciality Hospital and Icu",
      "lat": 19.296962,
      "lon": 73.0621718,
      "phone": null
    },
    {
      "id": "7043143042",
      "tile_id": "lat192_lon730",
      "type": "hospital",
      "name": "Dr. Khona's E. N. T. Hospital & Regional Center",
      "lat": 19.175445,
      "lon": 72.9539676,
      "phone": null
    },
    {
      "id": "7043174029",
      "tile_id": "lat191_lon728",
      "type": "hospital",
      "name": "Sangita Maternity Surgical and Diagnostic Centre",
      "lat": 19.1181601,
      "lon": 72.844288,
      "phone": null
    },
    {
      "id": "7043174030",
      "tile_id": "lat191_lon728",
      "type": "hospital",
      "name": "Ojas Eye Hospital",
      "lat": 19.0632283,
      "lon": 72.834439,
      "phone": null
    },
    {
      "id": "7043177298",
      "tile_id": "lat192_lon730",
      "type": "hospital",
      "name": "Dr. Shettys E.N.T. Hospital",
      "lat": 19.1758149,
      "lon": 72.9528357,
      "phone": null
    },
    {
      "id": "7043182324",
      "tile_id": "lat191_lon728",
      "type": "hospital",
      "name": "R. K. Hospital, Mumbai",
      "lat": 19.0803279,
      "lon": 72.8421846,
      "phone": null
    },
    {
      "id": "7043182325",
      "tile_id": "lat191_lon730",
      "type": "hospital",
      "name": "Dr. R.N. Patil's Suraj Neurologiacal and Multispeciality Hospital",
      "lat": 19.0624707,
      "lon": 73.0060434,
      "phone": null
    },
    {
      "id": "7043182335",
      "tile_id": "lat192_lon731",
      "type": "hospital",
      "name": "Anil Eye Hospital",
      "lat": 19.2203737,
      "lon": 73.0916561,
      "phone": null
    },
    {
      "id": "7043188926",
      "tile_id": "lat190_lon729",
      "type": "hospital",
      "name": "Inlaks General Hospital",
      "lat": 19.0467619,
      "lon": 72.8934167,
      "phone": null
    },
    {
      "id": "7043230046",
      "tile_id": "lat191_lon728",
      "type": "hospital",
      "name": "Prime Orthopedic Speciality Hospital, Mumbai",
      "lat": 19.1284312,
      "lon": 72.8468965,
      "phone": null
    },
    {
      "id": "7043230054",
      "tile_id": "lat192_lon728",
      "type": "hospital",
      "name": "Sunflowar Laboratory and Diagnostic Centre",
      "lat": 19.1930526,
      "lon": 72.8418451,
      "phone": null
    },
    {
      "id": "7043230063",
      "tile_id": "lat192_lon730",
      "type": "hospital",
      "name": "THC-Thane Health Care",
      "lat": 19.1867653,
      "lon": 72.9696322,
      "phone": null
    },
    {
      "id": "7043233247",
      "tile_id": "lat191_lon729",
      "type": "hospital",
      "name": "Swastik Hospital and Research Centre, Mumbai",
      "lat": 19.0552184,
      "lon": 72.8898903,
      "phone": null
    },
    {
      "id": "7043236781",
      "tile_id": "lat191_lon729",
      "type": "hospital",
      "name": "Sitla Hospital",
      "lat": 19.0526628,
      "lon": 72.8911664,
      "phone": null
    },
    {
      "id": "7043348148",
      "tile_id": "lat191_lon728",
      "type": "hospital",
      "name": "Nandan Maternity and Surgical Home",
      "lat": 19.0797908,
      "lon": 72.8427047,
      "phone": null
    },
    {
      "id": "7043376493",
      "tile_id": "lat191_lon728",
      "type": "hospital",
      "name": "Mumbai Retina Centre",
      "lat": 19.0784905,
      "lon": 72.8380749,
      "phone": null
    },
    {
      "id": "7043388690",
      "tile_id": "lat191_lon728",
      "type": "hospital",
      "name": "Malpani Eye Hospital and Laser Centre",
      "lat": 19.0879436,
      "lon": 72.8376687,
      "phone": null
    },
    {
      "id": "7043397402",
      "tile_id": "lat192_lon729",
      "type": "hospital",
      "name": "Shreeji Hospital (Kandivli)",
      "lat": 19.1968922,
      "lon": 72.8736733,
      "phone": null
    },
    {
      "id": "7043397403",
      "tile_id": "lat191_lon729",
      "type": "hospital",
      "name": "S B Nursing Home and Icu",
      "lat": 19.1242045,
      "lon": 72.8906147,
      "phone": null
    },
    {
      "id": "7043397404",
      "tile_id": "lat191_lon729",
      "type": "hospital",
      "name": "Sri Sai Eye Care Centre",
      "lat": 19.1254925,
      "lon": 72.9181845,
      "phone": null
    },
    {
      "id": "7043397894",
      "tile_id": "lat191_lon728",
      "type": "hospital",
      "name": "Kenias Eye Hospital",
      "lat": 19.089509,
      "lon": 72.8385763,
      "phone": null
    },
    {
      "id": "7043397906",
      "tile_id": "lat191_lon728",
      "type": "hospital",
      "name": "Centre For Sight, Juhu",
      "lat": 19.1129534,
      "lon": 72.8379245,
      "phone": null
    },
    {
      "id": "7043397913",
      "tile_id": "lat192_lon728",
      "type": "hospital",
      "name": "Ankur Hospital",
      "lat": 19.2030731,
      "lon": 72.8470266,
      "phone": null
    },
    {
      "id": "7043399087",
      "tile_id": "lat192_lon730",
      "type": "hospital",
      "name": "Trupti Hospital - Thane",
      "lat": 19.216111,
      "lon": 72.9590323,
      "phone": null
    },
    {
      "id": "7043399089",
      "tile_id": "lat191_lon730",
      "type": "hospital",
      "name": "Dr. Kunnure Hospital and Iccu",
      "lat": 19.081001,
      "lon": 72.9988839,
      "phone": null
    },
    {
      "id": "7043399091",
      "tile_id": "lat192_lon730",
      "type": "hospital",
      "name": "Aditi Children Hospital and Nursing",
      "lat": 19.1930041,
      "lon": 72.9906975,
      "phone": null
    },
    {
      "id": "7043399092",
      "tile_id": "lat192_lon729",
      "type": "hospital",
      "name": "Total Woman Medical Centre - Dahisar",
      "lat": 19.2425422,
      "lon": 72.8675938,
      "phone": null
    },
    {
      "id": "7043448094",
      "tile_id": "lat190_lon728",
      "type": "hospital",
      "name": "Mangeshikar Access Gynecology and Infertility Center",
      "lat": 18.9603152,
      "lon": 72.8102066,
      "phone": null
    },
    {
      "id": "7043454787",
      "tile_id": "lat189_lon729",
      "type": "hospital",
      "name": "Dr.A.Tungekar's Hospital",
      "lat": 18.8801317,
      "lon": 72.9392899,
      "phone": null
    },
    {
      "id": "7043548005",
      "tile_id": "lat191_lon728",
      "type": "hospital",
      "name": "Shroff Eye Hospital",
      "lat": 19.0604187,
      "lon": 72.8369254,
      "phone": null
    },
    {
      "id": "7043574603",
      "tile_id": "lat189_lon728",
      "type": "hospital",
      "name": "Vinod Sharma Memorial Medical Centre",
      "lat": 18.9230941,
      "lon": 72.8276074,
      "phone": null
    },
    {
      "id": "7043607124",
      "tile_id": "lat192_lon730",
      "type": "hospital",
      "name": "Risk Care Hospital and Iccu",
      "lat": 19.1996346,
      "lon": 72.9721436,
      "phone": null
    },
    {
      "id": "7043615376",
      "tile_id": "lat192_lon730",
      "type": "hospital",
      "name": "Vaidya Maternity Home",
      "lat": 19.1871764,
      "lon": 72.9678346,
      "phone": null
    },
    {
      "id": "7043670893",
      "tile_id": "lat192_lon730",
      "type": "hospital",
      "name": "Dr Bansal's Arogya Hospital",
      "lat": 19.2111354,
      "lon": 72.9770842,
      "phone": null
    },
    {
      "id": "7043693171",
      "tile_id": "lat191_lon729",
      "type": "hospital",
      "name": "Noble Hospital, Ghatkopar",
      "lat": 19.0878158,
      "lon": 72.9069324,
      "phone": null
    },
    {
      "id": "7043757576",
      "tile_id": "lat191_lon730",
      "type": "hospital",
      "name": "Parulekar Hospital",
      "lat": 19.1467481,
      "lon": 72.9974623,
      "phone": null
    },
    {
      "id": "7043758338",
      "tile_id": "lat192_lon730",
      "type": "hospital",
      "name": "Disha Hospital",
      "lat": 19.1511429,
      "lon": 72.9979656,
      "phone": null
    },
    {
      "id": "7043769618",
      "tile_id": "lat191_lon729",
      "type": "hospital",
      "name": "Excel Ent Hospital",
      "lat": 19.0824573,
      "lon": 72.9092287,
      "phone": null
    },
    {
      "id": "7043778826",
      "tile_id": "lat191_lon728",
      "type": "hospital",
      "name": "Parle Eye Hospital",
      "lat": 19.1013222,
      "lon": 72.8484596,
      "phone": null
    },
    {
      "id": "7043784861",
      "tile_id": "lat193_lon729",
      "type": "hospital",
      "name": "Sudha Hospital and Polyclinic, Thane",
      "lat": 19.3084057,
      "lon": 72.8534062,
      "phone": null
    },
    {
      "id": "7043842002",
      "tile_id": "lat191_lon729",
      "type": "hospital",
      "name": "Dr.Bhatia's Ruby Hospital",
      "lat": 19.1457239,
      "lon": 72.9293557,
      "phone": null
    },
    {
      "id": "7043843797",
      "tile_id": "lat192_lon729",
      "type": "hospital",
      "name": "Megha Surgical Hospital",
      "lat": 19.1857961,
      "lon": 72.8544543,
      "phone": null
    },
    {
      "id": "7044011261",
      "tile_id": "lat192_lon730",
      "type": "hospital",
      "name": "Metro Hospital and Icu",
      "lat": 19.2358192,
      "lon": 72.9755159,
      "phone": null
    },
    {
      "id": "7044023272",
      "tile_id": "lat192_lon729",
      "type": "hospital",
      "name": "Shri Bala Hanuman Maternity & Surgical Hospital",
      "lat": 19.2187787,
      "lon": 72.8523903,
      "phone": null
    },
    {
      "id": "7044057691",
      "tile_id": "lat192_lon728",
      "type": "hospital",
      "name": "Shah Surgical Hospital and Maternity Home P. Ltd.",
      "lat": 19.2039141,
      "lon": 72.8494285,
      "phone": null
    },
    {
      "id": "7044064894",
      "tile_id": "lat190_lon728",
      "type": "hospital",
      "name": "Dr.Vaze Hospital",
      "lat": 19.0240308,
      "lon": 72.8368979,
      "phone": null
    },
    {
      "id": "7044066531",
      "tile_id": "lat192_lon731",
      "type": "hospital",
      "name": "Shri Chaitanya Hospital",
      "lat": 19.2163441,
      "lon": 73.08933,
      "phone": null
    },
    {
      "id": "7044071693",
      "tile_id": "lat190_lon728",
      "type": "hospital",
      "name": "Asha Surgical and Maternity Home",
      "lat": 19.0135345,
      "lon": 72.8283792,
      "phone": "09821662821"
    },
    {
      "id": "7044217369",
      "tile_id": "lat192_lon730",
      "type": "hospital",
      "name": "Janam Hospital",
      "lat": 19.1964227,
      "lon": 72.9762286,
      "phone": null
    },
    {
      "id": "7044322978",
      "tile_id": "lat192_lon729",
      "type": "hospital",
      "name": "Apex Hospital, Mumbai",
      "lat": 19.2318895,
      "lon": 72.8500816,
      "phone": null
    },
    {
      "id": "7044344099",
      "tile_id": "lat191_lon729",
      "type": "hospital",
      "name": "Mukund Maternity and Surgical Nursing Home",
      "lat": 19.1111299,
      "lon": 72.8721267,
      "phone": null
    },
    {
      "id": "7044368551",
      "tile_id": "lat192_lon730",
      "type": "hospital",
      "name": "Aparna Hospital, Mulund (W)",
      "lat": 19.169912,
      "lon": 72.9536431,
      "phone": null
    },
    {
      "id": "7044368883",
      "tile_id": "lat192_lon730",
      "type": "hospital",
      "name": "Shree Ramkrishna Netralaya",
      "lat": 19.1998018,
      "lon": 72.9722703,
      "phone": null
    },
    {
      "id": "7044376947",
      "tile_id": "lat191_lon729",
      "type": "hospital",
      "name": "Vikas Nursing Home, Mumbai",
      "lat": 19.0628176,
      "lon": 72.9207404,
      "phone": null
    },
    {
      "id": "7044435707",
      "tile_id": "lat192_lon728",
      "type": "hospital",
      "name": "Ameya Maternity and Surgical Nursing Home, Borivali",
      "lat": 19.2322314,
      "lon": 72.8470749,
      "phone": null
    },
    {
      "id": "7044466685",
      "tile_id": "lat190_lon728",
      "type": "hospital",
      "name": "Dr. Yash Shah Total Eye Care",
      "lat": 18.9576821,
      "lon": 72.821319,
      "phone": null
    },
    {
      "id": "7044491593",
      "tile_id": "lat193_lon729",
      "type": "hospital",
      "name": "Sai Kripa Children's and Surgical Hospital",
      "lat": 19.3128494,
      "lon": 72.853146,
      "phone": null
    },
    {
      "id": "7044553386",
      "tile_id": "lat190_lon728",
      "type": "hospital",
      "name": "Krishna Cardiac Care Centre, Mumbai",
      "lat": 19.0196598,
      "lon": 72.8486822,
      "phone": null
    },
    {
      "id": "7044564951",
      "tile_id": "lat190_lon731",
      "type": "hospital",
      "name": "M G M Hospital",
      "lat": 19.0297614,
      "lon": 73.1022079,
      "phone": null
    },
    {
      "id": "7044588566",
      "tile_id": "lat190_lon731",
      "type": "hospital",
      "name": "Vatsalya Multi Speciality Hospital",
      "lat": 19.0299668,
      "lon": 73.1011391,
      "phone": null
    },
    {
      "id": "7044610739",
      "tile_id": "lat192_lon729",
      "type": "hospital",
      "name": "Shree Sai Hospital, Mumbai",
      "lat": 19.213646,
      "lon": 72.8670365,
      "phone": null
    },
    {
      "id": "7044669600",
      "tile_id": "lat191_lon729",
      "type": "hospital",
      "name": "Tara Neo Surg Hospital",
      "lat": 19.0757589,
      "lon": 72.9030552,
      "phone": null
    },
    {
      "id": "7044692216",
      "tile_id": "lat191_lon729",
      "type": "hospital",
      "name": "The Eye Super Specialities",
      "lat": 19.0793026,
      "lon": 72.902154,
      "phone": null
    },
    {
      "id": "7044723744",
      "tile_id": "lat192_lon730",
      "type": "hospital",
      "name": "Dr Wavikar Eye Hospital",
      "lat": 19.188266,
      "lon": 72.9723501,
      "phone": null
    },
    {
      "id": "7044745237",
      "tile_id": "lat192_lon730",
      "type": "hospital",
      "name": "Dr Walvatkars Eye Care Center",
      "lat": 19.2192568,
      "lon": 72.9784012,
      "phone": null
    },
    {
      "id": "7044745238",
      "tile_id": "lat191_lon729",
      "type": "hospital",
      "name": "Advanced Orthopaedic and Super Speciality Center",
      "lat": 19.0791531,
      "lon": 72.9039431,
      "phone": null
    },
    {
      "id": "7044793428",
      "tile_id": "lat192_lon731",
      "type": "hospital",
      "name": "Pmrs Ace Children's Hospital",
      "lat": 19.2038406,
      "lon": 73.094911,
      "phone": null
    },
    {
      "id": "7044797317",
      "tile_id": "lat192_lon729",
      "type": "hospital",
      "name": "Surbhi Life Care Hospital",
      "lat": 19.2133896,
      "lon": 72.8636751,
      "phone": null
    },
    {
      "id": "7044798646",
      "tile_id": "lat193_lon729",
      "type": "hospital",
      "name": "Neel Orthopaedic Superspeciality Hospital",
      "lat": 19.3057136,
      "lon": 72.8578895,
      "phone": null
    },
    {
      "id": "7044814876",
      "tile_id": "lat192_lon731",
      "type": "hospital",
      "name": "Mahalaxmi Hospital, Thane",
      "lat": 19.2219275,
      "lon": 73.0818526,
      "phone": null
    },
    {
      "id": "7044823957",
      "tile_id": "lat190_lon731",
      "type": "hospital",
      "name": "Sudha Shankar Netralaya",
      "lat": 18.9903595,
      "lon": 73.1107199,
      "phone": null
    },
    {
      "id": "7044828033",
      "tile_id": "lat193_lon729",
      "type": "hospital",
      "name": "Galaxy Hospital",
      "lat": 19.2965257,
      "lon": 72.8753494,
      "phone": null
    },
    {
      "id": "7044829632",
      "tile_id": "lat191_lon729",
      "type": "hospital",
      "name": "Sushila Hospital-Icu and Maternity",
      "lat": 19.0829325,
      "lon": 72.8819436,
      "phone": null
    },
    {
      "id": "7044851836",
      "tile_id": "lat192_lon730",
      "type": "hospital",
      "name": "Dr Subodh Mehtas Advance Orthopedic and Joint Replacement Center",
      "lat": 19.1962657,
      "lon": 72.9663366,
      "phone": null
    },
    {
      "id": "7044863001",
      "tile_id": "lat191_lon730",
      "type": "hospital",
      "name": "Dr Manes Gawali Hospital",
      "lat": 19.1428364,
      "lon": 73.0015627,
      "phone": null
    },
    {
      "id": "7044982117",
      "tile_id": "lat192_lon728",
      "type": "hospital",
      "name": "Adarsh Hospital, Mumbai",
      "lat": 19.1937801,
      "lon": 72.8394373,
      "phone": null
    },
    {
      "id": "7045020590",
      "tile_id": "lat191_lon729",
      "type": "hospital",
      "name": "V Care Hospital and Icu",
      "lat": 19.062706,
      "lon": 72.8815868,
      "phone": null
    },
    {
      "id": "7045048100",
      "tile_id": "lat192_lon730",
      "type": "hospital",
      "name": "Unnati Critical Care Unit and I.C.C.U",
      "lat": 19.1959389,
      "lon": 72.9708615,
      "phone": null
    },
    {
      "id": "7045155680",
      "tile_id": "lat190_lon729",
      "type": "hospital",
      "name": "Universal Eye Clinic and Surgical Centre",
      "lat": 19.0431439,
      "lon": 72.8936943,
      "phone": null
    },
    {
      "id": "7045282445",
      "tile_id": "lat191_lon728",
      "type": "hospital",
      "name": "Mahima Hospital and Polyclinic",
      "lat": 19.1305947,
      "lon": 72.8184403,
      "phone": null
    },
    {
      "id": "7045283817",
      "tile_id": "lat192_lon728",
      "type": "hospital",
      "name": "Niramay Mother-Care Centre (Maternity and Surgical)",
      "lat": 19.2213057,
      "lon": 72.8401212,
      "phone": null
    },
    {
      "id": "7045291440",
      "tile_id": "lat190_lon728",
      "type": "hospital",
      "name": "Siddivinayak Healthcare Pvt Ltd",
      "lat": 19.0139586,
      "lon": 72.8325856,
      "phone": null
    },
    {
      "id": "7045315311",
      "tile_id": "lat191_lon728",
      "type": "hospital",
      "name": "Indu Child Care Center",
      "lat": 19.1344091,
      "lon": 72.8243659,
      "phone": null
    },
    {
      "id": "7045315524",
      "tile_id": "lat192_lon730",
      "type": "hospital",
      "name": "Bodas Surgical and Maternity Home",
      "lat": 19.1930892,
      "lon": 72.9710492,
      "phone": null
    },
    {
      "id": "7045320931",
      "tile_id": "lat192_lon729",
      "type": "hospital",
      "name": "Suchak Hospital",
      "lat": 19.1888056,
      "lon": 72.8501675,
      "phone": null
    },
    {
      "id": "7045324038",
      "tile_id": "lat191_lon729",
      "type": "hospital",
      "name": "Aryan Hospital and Iccu - Kurla-Mumbai",
      "lat": 19.0630077,
      "lon": 72.8823915,
      "phone": null
    },
    {
      "id": "7045490278",
      "tile_id": "lat192_lon729",
      "type": "hospital",
      "name": "Dr Bothra's Hospital",
      "lat": 19.1532611,
      "lon": 72.9308885,
      "phone": null
    },
    {
      "id": "7045516016",
      "tile_id": "lat192_lon731",
      "type": "hospital",
      "name": "Shree Sadguru Krupa Hospital",
      "lat": 19.2219908,
      "lon": 73.0848876,
      "phone": null
    },
    {
      "id": "7045516017",
      "tile_id": "lat190_lon731",
      "type": "hospital",
      "name": "Sahasrabudhe Hospital and I.C.C.U",
      "lat": 18.9945467,
      "lon": 73.1082483,
      "phone": null
    },
    {
      "id": "7045681869",
      "tile_id": "lat192_lon731",
      "type": "hospital",
      "name": "Shri Chaitanya Hospital - Mumbai",
      "lat": 19.2156856,
      "lon": 73.092894,
      "phone": null
    },
    {
      "id": "7045681875",
      "tile_id": "lat192_lon730",
      "type": "hospital",
      "name": "Sahil Hospital, Thane",
      "lat": 19.2029832,
      "lon": 72.9719143,
      "phone": null
    },
    {
      "id": "7045701178",
      "tile_id": "lat192_lon729",
      "type": "hospital",
      "name": "Paramount Ganpati Health Care - Kandivali",
      "lat": 19.2149511,
      "lon": 72.8687109,
      "phone": null
    },
    {
      "id": "7045750046",
      "tile_id": "lat192_lon729",
      "type": "hospital",
      "name": "Anandpara Surgical and General Hospital",
      "lat": 19.1844402,
      "lon": 72.8514314,
      "phone": null
    },
    {
      "id": "7045750052",
      "tile_id": "lat192_lon729",
      "type": "hospital",
      "name": "Sanket Hospital",
      "lat": 19.228839,
      "lon": 72.8510848,
      "phone": null
    },
    {
      "id": "7045821092",
      "tile_id": "lat190_lon731",
      "type": "hospital",
      "name": "Dr Singh's City Hospital and Medical Research Centre",
      "lat": 19.028344,
      "lon": 73.0967107,
      "phone": null
    },
    {
      "id": "7045821102",
      "tile_id": "lat192_lon730",
      "type": "hospital",
      "name": "Maher Maternity and Nursing Home, Mumbai",
      "lat": 19.1703693,
      "lon": 72.9588425,
      "phone": null
    },
    {
      "id": "7045873132",
      "tile_id": "lat192_lon731",
      "type": "hospital",
      "name": "Karwa Hospital and Iccu",
      "lat": 19.2163124,
      "lon": 73.092725,
      "phone": null
    },
    {
      "id": "7045980559",
      "tile_id": "lat192_lon730",
      "type": "hospital",
      "name": "Avadhoot Hospital and Iccu",
      "lat": 19.1597689,
      "lon": 72.9925981,
      "phone": null
    },
    {
      "id": "7046326222",
      "tile_id": "lat191_lon728",
      "type": "hospital",
      "name": "Navjivan Maternity and Surgical Nursing Home",
      "lat": 19.0972827,
      "lon": 72.8493802,
      "phone": null
    },
    {
      "id": "7046488275",
      "tile_id": "lat191_lon729",
      "type": "hospital",
      "name": "Kolekar Hospital & ICCU",
      "lat": 19.0598819,
      "lon": 72.9011294,
      "phone": null
    },
    {
      "id": "7046600689",
      "tile_id": "lat192_lon730",
      "type": "hospital",
      "name": "Dr.Priya's Sai Niwas Maternity and Infertility Nursing Home",
      "lat": 19.1877619,
      "lon": 72.9522537,
      "phone": null
    },
    {
      "id": "7046777602",
      "tile_id": "lat191_lon729",
      "type": "hospital",
      "name": "Surana Sethia Hospital And Research Centre",
      "lat": 19.0535553,
      "lon": 72.8870063,
      "phone": null
    },
    {
      "id": "7046929174",
      "tile_id": "lat192_lon730",
      "type": "hospital",
      "name": "Dr Uppal's ENT Hospital & Sonic Hearing & Speech Centre",
      "lat": 19.1982794,
      "lon": 72.9670675,
      "phone": null
    },
    {
      "id": "7047301433",
      "tile_id": "lat191_lon730",
      "type": "hospital",
      "name": "Uma Hospital",
      "lat": 19.0823723,
      "lon": 72.9998548,
      "phone": null
    },
    {
      "id": "7047367430",
      "tile_id": "lat190_lon730",
      "type": "hospital",
      "name": "Dr. Sonawane's Hospital",
      "lat": 19.0217017,
      "lon": 73.0241248,
      "phone": null
    },
    {
      "id": "7047423152",
      "tile_id": "lat192_lon729",
      "type": "hospital",
      "name": "Tushar Maternity and Surgical Nursing Home",
      "lat": 19.1743945,
      "lon": 72.8613845,
      "phone": null
    },
    {
      "id": "7047430578",
      "tile_id": "lat191_lon729",
      "type": "hospital",
      "name": "Durga Maternity and Surgical Nursing Home",
      "lat": 19.0758488,
      "lon": 72.8608239,
      "phone": null
    },
    {
      "id": "7047514360",
      "tile_id": "lat190_lon731",
      "type": "hospital",
      "name": "Janeshwari Brain and Spinte Centre Swati Maternity",
      "lat": 19.0148696,
      "lon": 73.1117827,
      "phone": null
    },
    {
      "id": "7047542514",
      "tile_id": "lat191_lon729",
      "type": "hospital",
      "name": "Vatsalya Maternity and Surgical Nursing Home",
      "lat": 19.0858653,
      "lon": 72.9053056,
      "phone": null
    },
    {
      "id": "7047553990",
      "tile_id": "lat191_lon729",
      "type": "hospital",
      "name": "Shreeji Hospital, Ghatkopar",
      "lat": 19.0844927,
      "lon": 72.9048134,
      "phone": null
    },
    {
      "id": "7047557038",
      "tile_id": "lat189_lon728",
      "type": "hospital",
      "name": "Banaji Eyesurgery and Laser Center",
      "lat": 18.9358357,
      "lon": 72.8332373,
      "phone": null
    },
    {
      "id": "7047581070",
      "tile_id": "lat193_lon729",
      "type": "hospital",
      "name": "Indra Maternity and Surgical Nursing Home",
      "lat": 19.2777521,
      "lon": 72.8648499,
      "phone": null
    },
    {
      "id": "7047598027",
      "tile_id": "lat190_lon728",
      "type": "hospital",
      "name": "Nirmala Maternity and Surgical Hospital with Polyclinic",
      "lat": 18.9868937,
      "lon": 72.8306866,
      "phone": null
    },
    {
      "id": "7047681634",
      "tile_id": "lat193_lon729",
      "type": "hospital",
      "name": "Shri Siddhi Vinayak Orthopaedic Hospital",
      "lat": 19.3017988,
      "lon": 72.8527611,
      "phone": null
    },
    {
      "id": "7047690741",
      "tile_id": "lat192_lon728",
      "type": "hospital",
      "name": "Abhijit Hospital",
      "lat": 19.1880874,
      "lon": 72.8433922,
      "phone": null
    },
    {
      "id": "7047711117",
      "tile_id": "lat191_lon728",
      "type": "hospital",
      "name": "Siddhivinayak Surgical Centre",
      "lat": 19.1274074,
      "lon": 72.8314617,
      "phone": null
    },
    {
      "id": "7047805770",
      "tile_id": "lat192_lon731",
      "type": "hospital",
      "name": "Suyash Hospital, Dombivali",
      "lat": 19.2096435,
      "lon": 73.0935967,
      "phone": null
    },
    {
      "id": "7047813835",
      "tile_id": "lat192_lon729",
      "type": "hospital",
      "name": "Suvidha Hospital and Iccu",
      "lat": 19.1813262,
      "lon": 72.8634739,
      "phone": null
    },
    {
      "id": "7047864600",
      "tile_id": "lat192_lon731",
      "type": "hospital",
      "name": "Hambarde Hospital - Mumbai",
      "lat": 19.2162884,
      "lon": 73.0916467,
      "phone": null
    },
    {
      "id": "7047889769",
      "tile_id": "lat192_lon730",
      "type": "hospital",
      "name": "Netra Jyot Eye Care Centre",
      "lat": 19.1739389,
      "lon": 72.9550807,
      "phone": null
    },
    {
      "id": "7047919321",
      "tile_id": "lat192_lon730",
      "type": "hospital",
      "name": "Indravati Hospital",
      "lat": 19.1566538,
      "lon": 72.9977667,
      "phone": null
    },
    {
      "id": "7047933154",
      "tile_id": "lat190_lon728",
      "type": "hospital",
      "name": "Aryan Hospital and Icu",
      "lat": 18.9898598,
      "lon": 72.8412236,
      "phone": null
    },
    {
      "id": "7048041081",
      "tile_id": "lat192_lon729",
      "type": "hospital",
      "name": "DNA Multispeciality Hospital - Mumbai",
      "lat": 19.2005212,
      "lon": 72.8714374,
      "phone": null
    },
    {
      "id": "7048110383",
      "tile_id": "lat191_lon729",
      "type": "hospital",
      "name": "Sulochan Eye",
      "lat": 19.1473308,
      "lon": 72.9363066,
      "phone": null
    },
    {
      "id": "7048131891",
      "tile_id": "lat191_lon730",
      "type": "hospital",
      "name": "Vedaant Multispeciality Hospital",
      "lat": 19.1006081,
      "lon": 72.9986988,
      "phone": null
    },
    {
      "id": "7048131897",
      "tile_id": "lat191_lon728",
      "type": "hospital",
      "name": "Purandare Hospital, Mumbai",
      "lat": 19.1293511,
      "lon": 72.8221216,
      "phone": null
    },
    {
      "id": "7048131898",
      "tile_id": "lat192_lon729",
      "type": "hospital",
      "name": "Vibha Care Home",
      "lat": 19.2208372,
      "lon": 72.8514703,
      "phone": null
    },
    {
      "id": "7048131904",
      "tile_id": "lat190_lon730",
      "type": "hospital",
      "name": "Surya Hospital and Iccu",
      "lat": 19.0360934,
      "lon": 73.0231659,
      "phone": null
    },
    {
      "id": "7048172474",
      "tile_id": "lat190_lon729",
      "type": "hospital",
      "name": "Vaishnav Seva Samaj",
      "lat": 19.0338607,
      "lon": 72.8590146,
      "phone": null
    },
    {
      "id": "7048261194",
      "tile_id": "lat192_lon729",
      "type": "hospital",
      "name": "Patel Nursing Home, Mumbai",
      "lat": 19.2269461,
      "lon": 72.8549309,
      "phone": null
    },
    {
      "id": "7048261227",
      "tile_id": "lat191_lon729",
      "type": "hospital",
      "name": "Priyanka Maternity and Surgical Nursing Home",
      "lat": 19.1006777,
      "lon": 72.8907222,
      "phone": null
    },
    {
      "id": "7048261246",
      "tile_id": "lat192_lon729",
      "type": "hospital",
      "name": "Shivani Maternity Home Thane",
      "lat": 19.1902469,
      "lon": 72.946963,
      "phone": null
    },
    {
      "id": "7048433639",
      "tile_id": "lat190_lon728",
      "type": "hospital",
      "name": "Foresight Eye Center",
      "lat": 18.956311,
      "lon": 72.8133863,
      "phone": null
    },
    {
      "id": "7048433640",
      "tile_id": "lat192_lon729",
      "type": "hospital",
      "name": "Dr. Masurkar Hospital",
      "lat": 19.2033581,
      "lon": 72.8524567,
      "phone": null
    },
    {
      "id": "7048433662",
      "tile_id": "lat191_lon729",
      "type": "hospital",
      "name": "Vivek Maternity and Nursing Home",
      "lat": 19.0940612,
      "lon": 72.9000364,
      "phone": null
    },
    {
      "id": "7048433674",
      "tile_id": "lat191_lon728",
      "type": "hospital",
      "name": "Sujata Medicare (Sujata Gyanaecology Clinic);Dhake Colony",
      "lat": 19.127861,
      "lon": 72.8333795,
      "phone": null
    },
    {
      "id": "7048439600",
      "tile_id": "lat192_lon730",
      "type": "hospital",
      "name": "Aayush Multispeciality Hospital",
      "lat": 19.1525023,
      "lon": 72.9985231,
      "phone": null
    },
    {
      "id": "7048439606",
      "tile_id": "lat193_lon729",
      "type": "hospital",
      "name": "Life Care Hospital, Mira Road",
      "lat": 19.2842284,
      "lon": 72.8657176,
      "phone": null
    },
    {
      "id": "7048439618",
      "tile_id": "lat193_lon729",
      "type": "hospital",
      "name": "Akshit Maternity Home",
      "lat": 19.2551528,
      "lon": 72.8640854,
      "phone": null
    },
    {
      "id": "7048489128",
      "tile_id": "lat192_lon730",
      "type": "hospital",
      "name": "Hi-Tech Urology Centre",
      "lat": 19.1990415,
      "lon": 72.9627861,
      "phone": null
    },
    {
      "id": "7048504200",
      "tile_id": "lat190_lon731",
      "type": "hospital",
      "name": "Spandan Hospital and Research Centre, Raigarh",
      "lat": 19.0097668,
      "lon": 73.10936,
      "phone": null
    },
    {
      "id": "7048504206",
      "tile_id": "lat190_lon730",
      "type": "hospital",
      "name": "Aryan Hospital",
      "lat": 19.0410522,
      "lon": 73.014902,
      "phone": null
    },
    {
      "id": "7048529142",
      "tile_id": "lat192_lon730",
      "type": "hospital",
      "name": "Shushrusha Hospital and Icu",
      "lat": 19.1712725,
      "lon": 72.9580539,
      "phone": null
    },
    {
      "id": "7048562945",
      "tile_id": "lat190_lon730",
      "type": "hospital",
      "name": "Shivam Eye Foundation P P N",
      "lat": 19.0238279,
      "lon": 73.0219696,
      "phone": null
    },
    {
      "id": "7048562946",
      "tile_id": "lat192_lon728",
      "type": "hospital",
      "name": "Maa Nursing Home and Netra Jyoti Eye Care Center",
      "lat": 19.1750295,
      "lon": 72.8459443,
      "phone": null
    },
    {
      "id": "7048562947",
      "tile_id": "lat192_lon728",
      "type": "hospital",
      "name": "Vardhaman Iccu and Nursing Home",
      "lat": 19.1901368,
      "lon": 72.8441191,
      "phone": null
    },
    {
      "id": "7048747817",
      "tile_id": "lat192_lon728",
      "type": "hospital",
      "name": "Dr.Reena Mokal Nursing Home and Polyclinic",
      "lat": 19.215374,
      "lon": 72.8153551,
      "phone": "9324385177,9323409140."
    },
    {
      "id": "7048747818",
      "tile_id": "lat191_lon728",
      "type": "hospital",
      "name": "Saket Maternity and Nursing Home",
      "lat": 19.1352084,
      "lon": 72.8140642,
      "phone": null
    },
    {
      "id": "7048777736",
      "tile_id": "lat190_lon728",
      "type": "hospital",
      "name": "Dr. Nisars Eye Care Centre",
      "lat": 18.9590608,
      "lon": 72.8116697,
      "phone": null
    },
    {
      "id": "7048859409",
      "tile_id": "lat193_lon730",
      "type": "hospital",
      "name": "Neeta Ambani Hospital",
      "lat": 19.2617069,
      "lon": 72.9728879,
      "phone": null
    },
    {
      "id": "7048863374",
      "tile_id": "lat191_lon729",
      "type": "hospital",
      "name": "Varsha Parekh Maternity and Surgical Hospital",
      "lat": 19.0610324,
      "lon": 72.8985131,
      "phone": null
    },
    {
      "id": "7048872963",
      "tile_id": "lat191_lon729",
      "type": "hospital",
      "name": "Shree Sukh Shanti Hospital",
      "lat": 19.0878791,
      "lon": 72.9023337,
      "phone": null
    },
    {
      "id": "7048883830",
      "tile_id": "lat192_lon729",
      "type": "hospital",
      "name": "Divyadrashti Eye Care Centre",
      "lat": 19.2347733,
      "lon": 72.8553515,
      "phone": null
    },
    {
      "id": "7048889797",
      "tile_id": "lat190_lon731",
      "type": "hospital",
      "name": "Suyash Surgical and Maternity Home",
      "lat": 19.0252974,
      "lon": 73.1015146,
      "phone": null
    },
    {
      "id": "7048911653",
      "tile_id": "lat191_lon728",
      "type": "hospital",
      "name": "Vital Care Centre",
      "lat": 19.1468937,
      "lon": 72.8311546,
      "phone": null
    },
    {
      "id": "7048944239",
      "tile_id": "lat192_lon730",
      "type": "hospital",
      "name": "Akshaya Surgical and Maternity Home",
      "lat": 19.2037608,
      "lon": 72.9770654,
      "phone": null
    },
    {
      "id": "7048950247",
      "tile_id": "lat191_lon729",
      "type": "hospital",
      "name": "Modi General Hospital and Iccu",
      "lat": 19.1154687,
      "lon": 72.9306605,
      "phone": null
    },
    {
      "id": "7048956597",
      "tile_id": "lat192_lon729",
      "type": "hospital",
      "name": "Speciality Ear Nose Throat Hospital",
      "lat": 19.2144825,
      "lon": 72.8671432,
      "phone": null
    },
    {
      "id": "7048966028",
      "tile_id": "lat191_lon729",
      "type": "hospital",
      "name": "Saraswati Eye Hospital, Mumbai",
      "lat": 19.0799959,
      "lon": 72.9043213,
      "phone": null
    },
    {
      "id": "7048977912",
      "tile_id": "lat193_lon729",
      "type": "hospital",
      "name": "Saxena Children and General Hospital",
      "lat": 19.3089652,
      "lon": 72.8541613,
      "phone": null
    },
    {
      "id": "7049041346",
      "tile_id": "lat191_lon729",
      "type": "hospital",
      "name": "Ashirwad Heart Hospital",
      "lat": 19.076179,
      "lon": 72.9056409,
      "phone": null
    },
    {
      "id": "7049047978",
      "tile_id": "lat192_lon728",
      "type": "hospital",
      "name": "Neon Critical Care",
      "lat": 19.1940087,
      "lon": 72.8392093,
      "phone": null
    },
    {
      "id": "7049051361",
      "tile_id": "lat192_lon728",
      "type": "hospital",
      "name": "Darshan Orthopaedic and Surgical Clinic - Malad (W)",
      "lat": 19.1951758,
      "lon": 72.8475892,
      "phone": null
    },
    {
      "id": "7049056633",
      "tile_id": "lat192_lon731",
      "type": "hospital",
      "name": "Phoenix Hospital, Dombivali",
      "lat": 19.2091632,
      "lon": 73.0889057,
      "phone": null
    },
    {
      "id": "7049059260",
      "tile_id": "lat192_lon729",
      "type": "hospital",
      "name": "Dr. Alok Shahs Iccu and Nursing Home",
      "lat": 19.2337078,
      "lon": 72.8533351,
      "phone": null
    },
    {
      "id": "7049059278",
      "tile_id": "lat193_lon729",
      "type": "hospital",
      "name": "Saibaba Hospital and Polyclinic",
      "lat": 19.306206,
      "lon": 72.8573678,
      "phone": null
    },
    {
      "id": "7049068219",
      "tile_id": "lat192_lon730",
      "type": "hospital",
      "name": "Pioneer Health Care",
      "lat": 19.2035122,
      "lon": 72.9741385,
      "phone": null
    },
    {
      "id": "7049071219",
      "tile_id": "lat192_lon730",
      "type": "hospital",
      "name": "Dr.Nalavade Multispeciality Hospital",
      "lat": 19.196828,
      "lon": 72.9718137,
      "phone": null
    },
    {
      "id": "7049108193",
      "tile_id": "lat193_lon729",
      "type": "hospital",
      "name": "Shalom Medicare Pvt. Ltd.",
      "lat": 19.3008261,
      "lon": 72.8701834,
      "phone": null
    },
    {
      "id": "7049124019",
      "tile_id": "lat190_lon728",
      "type": "hospital",
      "name": "Shree Vardhaman Sthanakvasi Jain Shravak Sangh Dadar Sanchalit Navneet Jain Health Centre",
      "lat": 19.0204668,
      "lon": 72.8383778,
      "phone": null
    },
    {
      "id": "7049156092",
      "tile_id": "lat191_lon729",
      "type": "hospital",
      "name": "J. K. Child Health Care and Nicu",
      "lat": 19.1449554,
      "lon": 72.9347174,
      "phone": null
    },
    {
      "id": "7049161132",
      "tile_id": "lat192_lon730",
      "type": "hospital",
      "name": "Suruchi Eye Centre",
      "lat": 19.1511493,
      "lon": 72.9979008,
      "phone": null
    },
    {
      "id": "7049182746",
      "tile_id": "lat191_lon729",
      "type": "hospital",
      "name": "Amruta Surgical and Maternity Home",
      "lat": 19.0926292,
      "lon": 72.9125141,
      "phone": null
    },
    {
      "id": "7049186256",
      "tile_id": "lat190_lon731",
      "type": "hospital",
      "name": "Dhamke Hospital",
      "lat": 18.9923416,
      "lon": 73.1151144,
      "phone": null
    },
    {
      "id": "7049231038",
      "tile_id": "lat193_lon731",
      "type": "hospital",
      "name": "Smt.Zohrabi Childrens Hospital",
      "lat": 19.3006248,
      "lon": 73.0552914,
      "phone": null
    },
    {
      "id": "7049253111",
      "tile_id": "lat191_lon730",
      "type": "hospital",
      "name": "Pkc Hospital",
      "lat": 19.0805599,
      "lon": 73.0030265,
      "phone": null
    },
    {
      "id": "7049291708",
      "tile_id": "lat192_lon729",
      "type": "hospital",
      "name": "Navjeevan Urology and Stone Care Centre",
      "lat": 19.1660129,
      "lon": 72.8507602,
      "phone": null
    },
    {
      "id": "7049336179",
      "tile_id": "lat191_lon728",
      "type": "hospital",
      "name": "Criticare Multispeciality Hospital and Research Centre",
      "lat": 19.1156879,
      "lon": 72.8353295,
      "phone": null
    },
    {
      "id": "7049344773",
      "tile_id": "lat191_lon728",
      "type": "hospital",
      "name": "Orbit Eye Hospital, Mumbai",
      "lat": 19.1433248,
      "lon": 72.8427203,
      "phone": "2226771188"
    },
    {
      "id": "7049374148",
      "tile_id": "lat192_lon729",
      "type": "hospital",
      "name": "Enclave Maternity Home",
      "lat": 19.1745533,
      "lon": 72.8640358,
      "phone": null
    },
    {
      "id": "7049410769",
      "tile_id": "lat192_lon730",
      "type": "hospital",
      "name": "Aasha Cancer Hospital and Children First",
      "lat": 19.193409,
      "lon": 72.9706731,
      "phone": null
    },
    {
      "id": "7049431620",
      "tile_id": "lat192_lon729",
      "type": "hospital",
      "name": "Sai Krupa E.N.T. Nursing Home",
      "lat": 19.2262963,
      "lon": 72.8526716,
      "phone": null
    },
    {
      "id": "7049454051",
      "tile_id": "lat191_lon729",
      "type": "hospital",
      "name": "Balaji Speciality Hospital",
      "lat": 19.1079061,
      "lon": 72.888,
      "phone": null
    },
    {
      "id": "7049483334",
      "tile_id": "lat192_lon730",
      "type": "hospital",
      "name": "Kaushalya Medical Foundation Trust Hospital, Mumbai",
      "lat": 19.2000627,
      "lon": 72.9666732,
      "phone": null
    },
    {
      "id": "7049527159",
      "tile_id": "lat192_lon730",
      "type": "hospital",
      "name": "Holy Trinity Hospital",
      "lat": 19.1676317,
      "lon": 72.9513688,
      "phone": null
    },
    {
      "id": "7049527700",
      "tile_id": "lat193_lon731",
      "type": "hospital",
      "name": "Sai Leela Hospital",
      "lat": 19.3044119,
      "lon": 73.0660507,
      "phone": null
    },
    {
      "id": "7049558994",
      "tile_id": "lat192_lon729",
      "type": "hospital",
      "name": "Sanghvi Maternity and Surgical Hospital",
      "lat": 19.2170609,
      "lon": 72.8507911,
      "phone": null
    },
    {
      "id": "7049584815",
      "tile_id": "lat191_lon728",
      "type": "hospital",
      "name": "RG Stone Urology and Laparoscopy Hospital, Khar",
      "lat": 19.0740757,
      "lon": 72.8329611,
      "phone": null
    },
    {
      "id": "7049588260",
      "tile_id": "lat192_lon730",
      "type": "hospital",
      "name": "Chetna Critical Care Unit",
      "lat": 19.1747167,
      "lon": 72.9526278,
      "phone": null
    },
    {
      "id": "7049595408",
      "tile_id": "lat192_lon730",
      "type": "hospital",
      "name": "Omkar Eye Care Center",
      "lat": 19.1708418,
      "lon": 72.9541071,
      "phone": null
    },
    {
      "id": "7049597126",
      "tile_id": "lat190_lon730",
      "type": "hospital",
      "name": "Sushrusha Heart Care Center and Speciality Hospital",
      "lat": 19.0432478,
      "lon": 73.0096382,
      "phone": null
    },
    {
      "id": "7049604152",
      "tile_id": "lat192_lon729",
      "type": "hospital",
      "name": "Dr.Badwaik's Maternity and General Hospital",
      "lat": 19.1503562,
      "lon": 72.9381332,
      "phone": null
    },
    {
      "id": "7049683148",
      "tile_id": "lat190_lon729",
      "type": "hospital",
      "name": "Shanmukhananda Jasubhai R k shah Medical Centre",
      "lat": 19.031047,
      "lon": 72.860038,
      "phone": null
    },
    {
      "id": "7049684094",
      "tile_id": "lat192_lon729",
      "type": "hospital",
      "name": "Aditi Hospital, Kandivali",
      "lat": 19.2134884,
      "lon": 72.8641317,
      "phone": null
    },
    {
      "id": "7049696525",
      "tile_id": "lat190_lon730",
      "type": "hospital",
      "name": "Sanjivani Hospital and Iccu",
      "lat": 19.0409539,
      "lon": 73.0145547,
      "phone": null
    },
    {
      "id": "7049698468",
      "tile_id": "lat193_lon729",
      "type": "hospital",
      "name": "Thunga Hospital",
      "lat": 19.292293,
      "lon": 72.8623956,
      "phone": null
    },
    {
      "id": "7049712542",
      "tile_id": "lat191_lon728",
      "type": "hospital",
      "name": "Kokilaben Dhirubhai Ambani Hospital, Mumbai",
      "lat": 19.1312947,
      "lon": 72.8246301,
      "phone": null
    },
    {
      "id": "7049745244",
      "tile_id": "lat192_lon731",
      "type": "hospital",
      "name": "Gurukrupa Eye Hospital",
      "lat": 19.2209397,
      "lon": 73.0887875,
      "phone": null
    },
    {
      "id": "7049755583",
      "tile_id": "lat191_lon728",
      "type": "hospital",
      "name": "Dr Telangs Dhanvantari Hospital",
      "lat": 19.1188723,
      "lon": 72.8433318,
      "phone": null
    },
    {
      "id": "7049756932",
      "tile_id": "lat191_lon729",
      "type": "hospital",
      "name": "Dr.Pintos Pathological Laboratory",
      "lat": 19.1212519,
      "lon": 72.8799695,
      "phone": null
    },
    {
      "id": "7049775833",
      "tile_id": "lat192_lon730",
      "type": "hospital",
      "name": "Gandhi Hospital - Navi Mumbai",
      "lat": 19.1511011,
      "lon": 72.9995356,
      "phone": null
    },
    {
      "id": "7049785373",
      "tile_id": "lat192_lon728",
      "type": "hospital",
      "name": "Raichura Prasuti Gruha",
      "lat": 19.2078553,
      "lon": 72.8360476,
      "phone": null
    },
    {
      "id": "7049792673",
      "tile_id": "lat192_lon728",
      "type": "hospital",
      "name": "Sudha Hospital and Polyclinic, Mumbai",
      "lat": 19.1811533,
      "lon": 72.8493192,
      "phone": null
    },
    {
      "id": "7049800769",
      "tile_id": "lat191_lon729",
      "type": "hospital",
      "name": "Dr.Sakhalkar's Maternity and Nursing Home",
      "lat": 19.1244488,
      "lon": 72.8611457,
      "phone": null
    },
    {
      "id": "7049803405",
      "tile_id": "lat191_lon729",
      "type": "hospital",
      "name": "Suyog Urology Centre",
      "lat": 19.0931817,
      "lon": 72.9131524,
      "phone": null
    },
    {
      "id": "7049812966",
      "tile_id": "lat190_lon728",
      "type": "hospital",
      "name": "Punamiya Hospital, Mumbai",
      "lat": 19.0124701,
      "lon": 72.8343451,
      "phone": null
    },
    {
      "id": "7049822998",
      "tile_id": "lat191_lon728",
      "type": "hospital",
      "name": "Patil Hospital, Mumbai",
      "lat": 19.1235929,
      "lon": 72.8423361,
      "phone": null
    },
    {
      "id": "7049847480",
      "tile_id": "lat191_lon728",
      "type": "hospital",
      "name": "Oculus Eye Hospital Pvt. Ltd",
      "lat": 19.114371,
      "lon": 72.8334123,
      "phone": null
    },
    {
      "id": "7049890629",
      "tile_id": "lat192_lon729",
      "type": "hospital",
      "name": "Navdurga Fracture and Accident Centre",
      "lat": 19.2455898,
      "lon": 72.8599562,
      "phone": null
    },
    {
      "id": "7049981401",
      "tile_id": "lat192_lon729",
      "type": "hospital",
      "name": "Sai Swayam MatandNur Home",
      "lat": 19.187962,
      "lon": 72.8593138,
      "phone": null
    },
    {
      "id": "7050094778",
      "tile_id": "lat192_lon729",
      "type": "hospital",
      "name": "Ashirwad Orthopaedic and Surgical Nursing Home",
      "lat": 19.2284351,
      "lon": 72.8542954,
      "phone": null
    },
    {
      "id": "7050167816",
      "tile_id": "lat191_lon729",
      "type": "hospital",
      "name": "Zynova Heart Hospital",
      "lat": 19.0890312,
      "lon": 72.9071443,
      "phone": null
    },
    {
      "id": "7050234695",
      "tile_id": "lat190_lon731",
      "type": "hospital",
      "name": "Shri Swami Samarth Hospital",
      "lat": 18.992571,
      "lon": 73.1143261,
      "phone": null
    },
    {
      "id": "7050247346",
      "tile_id": "lat191_lon730",
      "type": "hospital",
      "name": "Vidhi Eye and Skin Care Centre",
      "lat": 19.0994752,
      "lon": 73.005757,
      "phone": null
    },
    {
      "id": "7050253933",
      "tile_id": "lat192_lon730",
      "type": "hospital",
      "name": "Dr Milind Patils Revival Bone and Joint Hospital",
      "lat": 19.1880456,
      "lon": 72.9660389,
      "phone": null
    },
    {
      "id": "7050257823",
      "tile_id": "lat192_lon729",
      "type": "hospital",
      "name": "Shree Borivli Gujarati Seva Mandal",
      "lat": 19.2251085,
      "lon": 72.8502063,
      "phone": null
    },
    {
      "id": "7050315220",
      "tile_id": "lat192_lon730",
      "type": "hospital",
      "name": "Sparsh Maternity and Nursing Home",
      "lat": 19.2281046,
      "lon": 72.9702191,
      "phone": null
    },
    {
      "id": "7050315932",
      "tile_id": "lat192_lon731",
      "type": "hospital",
      "name": "Sparsh Multispeciality Hospital and I C C U",
      "lat": 19.2145407,
      "lon": 73.0907616,
      "phone": null
    },
    {
      "id": "7050319630",
      "tile_id": "lat192_lon729",
      "type": "hospital",
      "name": "Jeevan Maternity and General Hospital",
      "lat": 19.1853768,
      "lon": 72.853927,
      "phone": null
    },
    {
      "id": "7050371648",
      "tile_id": "lat190_lon730",
      "type": "hospital",
      "name": "Kamlesh Mother and Child Hospital",
      "lat": 19.0434152,
      "lon": 73.0155337,
      "phone": null
    },
    {
      "id": "7050371670",
      "tile_id": "lat192_lon731",
      "type": "hospital",
      "name": "Spandan Hospital and Iccu",
      "lat": 19.2217388,
      "lon": 73.0865076,
      "phone": null
    },
    {
      "id": "7050395143",
      "tile_id": "lat193_lon731",
      "type": "hospital",
      "name": "Dr Anushka Laser Eye Centre",
      "lat": 19.2915803,
      "lon": 73.0568223,
      "phone": null
    },
    {
      "id": "7050396643",
      "tile_id": "lat193_lon729",
      "type": "hospital",
      "name": "Netrakhushi Eye and Laser Centre",
      "lat": 19.3093778,
      "lon": 72.8536798,
      "phone": null
    },
    {
      "id": "7050410994",
      "tile_id": "lat192_lon729",
      "type": "hospital",
      "name": "Sai Krupa Hospital, Mumbai",
      "lat": 19.1812375,
      "lon": 72.8573692,
      "phone": null
    },
    {
      "id": "7050525480",
      "tile_id": "lat191_lon730",
      "type": "hospital",
      "name": "Thanawala Maternity Home",
      "lat": 19.0739489,
      "lon": 72.9993063,
      "phone": null
    },
    {
      "id": "7050575276",
      "tile_id": "lat190_lon728",
      "type": "hospital",
      "name": "Prince Aly Khan Hospital",
      "lat": 18.9707774,
      "lon": 72.8366089,
      "phone": null
    },
    {
      "id": "7050579395",
      "tile_id": "lat190_lon730",
      "type": "hospital",
      "name": "Suyash Hospital",
      "lat": 19.0117366,
      "lon": 73.0323776,
      "phone": null
    },
    {
      "id": "7050593685",
      "tile_id": "lat191_lon730",
      "type": "hospital",
      "name": "Saraswati Skin and Eye Care Centre",
      "lat": 19.0980824,
      "lon": 73.0056068,
      "phone": null
    },
    {
      "id": "7050601465",
      "tile_id": "lat192_lon731",
      "type": "hospital",
      "name": "Aims (Asian Institute Of Medical Sciences) - Dombivli",
      "lat": 19.2079959,
      "lon": 73.1055593,
      "phone": null
    },
    {
      "id": "7050603512",
      "tile_id": "lat191_lon729",
      "type": "hospital",
      "name": "Laxmi Health Care Center and Iccu",
      "lat": 19.1134362,
      "lon": 72.9315296,
      "phone": null
    },
    {
      "id": "7050614446",
      "tile_id": "lat191_lon729",
      "type": "hospital",
      "name": "Khushal Hospital and Maternity Home",
      "lat": 19.0852037,
      "lon": 72.9100598,
      "phone": null
    },
    {
      "id": "7050623214",
      "tile_id": "lat192_lon731",
      "type": "hospital",
      "name": "Life Care Hospital",
      "lat": 19.2021727,
      "lon": 73.0882376,
      "phone": null
    },
    {
      "id": "7050847670",
      "tile_id": "lat193_lon729",
      "type": "hospital",
      "name": "Manav Kalyan Kendra Hospital",
      "lat": 19.311456,
      "lon": 72.855674,
      "phone": null
    },
    {
      "id": "7050847681",
      "tile_id": "lat192_lon728",
      "type": "hospital",
      "name": "Rajendra Maternity and Surgical Nursing Home",
      "lat": 19.2347942,
      "lon": 72.8415965,
      "phone": null
    },
    {
      "id": "7050863021",
      "tile_id": "lat193_lon729",
      "type": "hospital",
      "name": "Tanwar Hospital, Thane",
      "lat": 19.2938249,
      "lon": 72.862551,
      "phone": null
    },
    {
      "id": "7050863022",
      "tile_id": "lat193_lon729",
      "type": "hospital",
      "name": "Aryan Child Healthcare Centre and Nursing Home",
      "lat": 19.2787021,
      "lon": 72.8706922,
      "phone": null
    },
    {
      "id": "7050863023",
      "tile_id": "lat193_lon729",
      "type": "hospital",
      "name": "Gayatri Maternity and Ear Nose Throat Hospital",
      "lat": 19.279099,
      "lon": 72.8684829,
      "phone": null
    },